{
  "airports": [
    {
      "airportname": "goroka airport",
      "city": "goroka",
      "country": "papua new guinea",
      "airportcode": "gka",
      "abv": "ayga",
      "latitude": "-6.081689834590001",
      "longitude": "145.391998291",
      "altitude": "5282",
      "timezone": "10",
      "dst": "u",
      "timezonedb": "pacific/port_moresby",
      "type": "airport",
      "source": "ourairports"
    },
    {
      "airportname": "madang airport",
      "city": "madang",
      "country": "papua new guinea",
      "airportcode": "mag",
      "abv": "aymd",
      "latitude": "-5.20707988739",
      "longitude": "145.789001465",
      "altitude": "20",
      "timezone": "10",
      "dst": "u",
      "timezonedb": "pacific/port_moresby",
      "type": "airport",
      "source": "ourairports"
    },
    {
      "airportname": "mount hagen kagamuga airport",
      "city": "mount hagen",
      "country": "papua new guinea",
      "airportcode": "hgu",
      "abv": "aymh",
      "latitude": "-5.826789855957031",
      "longitude": "144.29600524902344",
      "altitude": "5388",
      "timezone": "10",
      "dst": "u",
      "timezonedb": "pacific/port_moresby",
      "type": "airport",
      "source": "ourairports"
    },
    {
      "airportname": "nadzab airport",
      "city": "nadzab",
      "country": "papua new guinea",
      "airportcode": "lae",
      "abv": "aynz",
      "latitude": "-6.569803",
      "longitude": "146.725977",
      "altitude": "239",
      "timezone": "10",
      "dst": "u",
      "timezonedb": "pacific/port_moresby",
      "type": "airport",
      "source": "ourairports"
    },
    {
      "airportname": "port moresby jacksons international airport",
      "city": "port moresby",
      "country": "papua new guinea",
      "airportcode": "pom",
      "abv": "aypy",
      "latitude": "-9.443380355834961",
      "longitude": "147.22000122070312",
      "altitude": "146",
      "timezone": "10",
      "dst": "u",
      "timezonedb": "pacific/port_moresby",
      "type": "airport",
      "source": "ourairports"
    },
    {
      "airportname": "wewak international airport",
      "city": "wewak",
      "country": "papua new guinea",
      "airportcode": "wwk",
      "abv": "aywk",
      "latitude": "-3.58383011818",
      "longitude": "143.669006348",
      "altitude": "19",
      "timezone": "10",
      "dst": "u",
      "timezonedb": "pacific/port_moresby",
      "type": "airport",
      "source": "ourairports"
    },
    {
      "airportname": "narsarsuaq airport",
      "city": "narssarssuaq",
      "country": "greenland",
      "airportcode": "uak",
      "abv": "bgbw",
      "latitude": "61.1604995728",
      "longitude": "-45.4259986877",
      "altitude": "112",
      "timezone": "-3",
      "dst": "e",
      "timezonedb": "america/godthab",
      "type": "airport",
      "source": "ourairports"
    },
    {
      "airportname": "godthaab / nuuk airport",
      "city": "godthaab",
      "country": "greenland",
      "airportcode": "goh",
      "abv": "bggh",
      "latitude": "64.19090271",
      "longitude": "-51.6781005859",
      "altitude": "283",
      "timezone": "-3",
      "dst": "e",
      "timezonedb": "america/godthab",
      "type": "airport",
      "source": "ourairports"
    },
    {
      "airportname": "kangerlussuaq airport",
      "city": "sondrestrom",
      "country": "greenland",
      "airportcode": "sfj",
      "abv": "bgsf",
      "latitude": "67.0122218992",
      "longitude": "-50.7116031647",
      "altitude": "165",
      "timezone": "-3",
      "dst": "e",
      "timezonedb": "america/godthab",
      "type": "airport",
      "source": "ourairports"
    },
    {
      "airportname": "thule air base",
      "city": "thule",
      "country": "greenland",
      "airportcode": "thu",
      "abv": "bgtl",
      "latitude": "76.5311965942",
      "longitude": "-68.7032012939",
      "altitude": "251",
      "timezone": "-4",
      "dst": "e",
      "timezonedb": "america/thule",
      "type": "airport",
      "source": "ourairports"
    },
    {
      "airportname": "akureyri airport",
      "city": "akureyri",
      "country": "iceland",
      "airportcode": "aey",
      "abv": "biar",
      "latitude": "65.66000366210938",
      "longitude": "-18.07270050048828",
      "altitude": "6",
      "timezone": "0",
      "dst": "n",
      "timezonedb": "atlantic/reykjavik",
      "type": "airport",
      "source": "ourairports"
    },
    {
      "airportname": "egilsstaðir airport",
      "city": "egilsstadir",
      "country": "iceland",
      "airportcode": "egs",
      "abv": "bieg",
      "latitude": "65.2833023071289",
      "longitude": "-14.401399612426758",
      "altitude": "76",
      "timezone": "0",
      "dst": "n",
      "timezonedb": "atlantic/reykjavik",
      "type": "airport",
      "source": "ourairports"
    },
    {
      "airportname": "hornafjörður airport",
      "city": "hofn",
      "country": "iceland",
      "airportcode": "hfn",
      "abv": "bihn",
      "latitude": "64.295601",
      "longitude": "-15.2272",
      "altitude": "24",
      "timezone": "0",
      "dst": "n",
      "timezonedb": "atlantic/reykjavik",
      "type": "airport",
      "source": "ourairports"
    },
    {
      "airportname": "húsavík airport",
      "city": "husavik",
      "country": "iceland",
      "airportcode": "hzk",
      "abv": "bihu",
      "latitude": "65.952301",
      "longitude": "-17.426001",
      "altitude": "48",
      "timezone": "0",
      "dst": "n",
      "timezonedb": "atlantic/reykjavik",
      "type": "airport",
      "source": "ourairports"
    },
    {
      "airportname": "ísafjörður airport",
      "city": "isafjordur",
      "country": "iceland",
      "airportcode": "ifj",
      "abv": "biis",
      "latitude": "66.05809783935547",
      "longitude": "-23.135299682617188",
      "altitude": "8",
      "timezone": "0",
      "dst": "n",
      "timezonedb": "atlantic/reykjavik",
      "type": "airport",
      "source": "ourairports"
    },
    {
      "airportname": "keflavik international airport",
      "city": "keflavik",
      "country": "iceland",
      "airportcode": "kef",
      "abv": "bikf",
      "latitude": "63.985000610352",
      "longitude": "-22.605600357056",
      "altitude": "171",
      "timezone": "0",
      "dst": "n",
      "timezonedb": "atlantic/reykjavik",
      "type": "airport",
      "source": "ourairports"
    },
    {
      "airportname": "patreksfjörður airport",
      "city": "patreksfjordur",
      "country": "iceland",
      "airportcode": "pfj",
      "abv": "bipa",
      "latitude": "65.555801",
      "longitude": "-23.965",
      "altitude": "11",
      "timezone": "0",
      "dst": "n",
      "timezonedb": "atlantic/reykjavik",
      "type": "airport",
      "source": "ourairports"
    },
    {
      "airportname": "reykjavik airport",
      "city": "reykjavik",
      "country": "iceland",
      "airportcode": "rkv",
      "abv": "birk",
      "latitude": "64.1299972534",
      "longitude": "-21.9405994415",
      "altitude": "48",
      "timezone": "0",
      "dst": "n",
      "timezonedb": "atlantic/reykjavik",
      "type": "airport",
      "source": "ourairports"
    },
    {
      "airportname": "siglufjörður airport",
      "city": "siglufjordur",
      "country": "iceland",
      "airportcode": "sij",
      "abv": "bisi",
      "latitude": "66.133301",
      "longitude": "-18.9167",
      "altitude": "10",
      "timezone": "0",
      "dst": "n",
      "timezonedb": "atlantic/reykjavik",
      "type": "airport",
      "source": "ourairports"
    },
    {
      "airportname": "vestmannaeyjar airport",
      "city": "vestmannaeyjar",
      "country": "iceland",
      "airportcode": "vey",
      "abv": "bivm",
      "latitude": "63.42430114746094",
      "longitude": "-20.278900146484375",
      "altitude": "326",
      "timezone": "0",
      "dst": "n",
      "timezonedb": "atlantic/reykjavik",
      "type": "airport",
      "source": "ourairports"
    },
    {
      "airportname": "sault ste marie airport",
      "city": "sault sainte marie",
      "country": "canada",
      "airportcode": "yam",
      "abv": "cyam",
      "latitude": "46.48500061035156",
      "longitude": "-84.5093994140625",
      "altitude": "630",
      "timezone": "-5",
      "dst": "a",
      "timezonedb": "america/toronto",
      "type": "airport",
      "source": "ourairports"
    },
    {
      "airportname": "winnipeg / st. andrews airport",
      "city": "winnipeg",
      "country": "canada",
      "airportcode": "yav",
      "abv": "cyav",
      "latitude": "50.0564002991",
      "longitude": "-97.03250122070001",
      "altitude": "760",
      "timezone": "-6",
      "dst": "a",
      "timezonedb": "america/winnipeg",
      "type": "airport",
      "source": "ourairports"
    },
    {
      "airportname": "halifax / cfb shearwater heliport",
      "city": "halifax",
      "country": "canada",
      "airportcode": "yaw",
      "abv": "cyaw",
      "latitude": "44.6397018433",
      "longitude": "-63.499401092499994",
      "altitude": "144",
      "timezone": "-4",
      "dst": "a",
      "timezonedb": "america/halifax",
      "type": "airport",
      "source": "ourairports"
    },
    {
      "airportname": "st. anthony airport",
      "city": "st. anthony",
      "country": "canada",
      "airportcode": "yay",
      "abv": "cyay",
      "latitude": "51.3918991089",
      "longitude": "-56.083099365200006",
      "altitude": "108",
      "timezone": "-3.5",
      "dst": "a",
      "timezonedb": "america/st_johns",
      "type": "airport",
      "source": "ourairports"
    },
    {
      "airportname": "tofino / long beach airport",
      "city": "tofino",
      "country": "canada",
      "airportcode": "yaz",
      "abv": "cyaz",
      "latitude": "49.079833",
      "longitude": "-125.775583",
      "altitude": "80",
      "timezone": "-8",
      "dst": "a",
      "timezonedb": "america/vancouver",
      "type": "airport",
      "source": "ourairports"
    },
    {
      "airportname": "kugaaruk airport",
      "city": "pelly bay",
      "country": "canada",
      "airportcode": "ybb",
      "abv": "cybb",
      "latitude": "68.534401",
      "longitude": "-89.808098",
      "altitude": "56",
      "timezone": "-7",
      "dst": "a",
      "timezonedb": "america/edmonton",
      "type": "airport",
      "source": "ourairports"
    },
    {
      "airportname": "baie comeau airport",
      "city": "baie comeau",
      "country": "canada",
      "airportcode": "ybc",
      "abv": "cybc",
      "latitude": "49.13249969482422",
      "longitude": "-68.20439910888672",
      "altitude": "71",
      "timezone": "-5",
      "dst": "a",
      "timezonedb": "america/toronto",
      "type": "airport",
      "source": "ourairports"
    },
    {
      "airportname": "cfb bagotville",
      "city": "bagotville",
      "country": "canada",
      "airportcode": "ybg",
      "abv": "cybg",
      "latitude": "48.33060073852539",
      "longitude": "-70.99639892578125",
      "altitude": "522",
      "timezone": "-5",
      "dst": "a",
      "timezonedb": "america/toronto",
      "type": "airport",
      "source": "ourairports"
    },
    {
      "airportname": "baker lake airport",
      "city": "baker lake",
      "country": "canada",
      "airportcode": "ybk",
      "abv": "cybk",
      "latitude": "64.29889678960001",
      "longitude": "-96.077796936",
      "altitude": "59",
      "timezone": "-6",
      "dst": "a",
      "timezonedb": "america/winnipeg",
      "type": "airport",
      "source": "ourairports"
    },
    {
      "airportname": "campbell river airport",
      "city": "campbell river",
      "country": "canada",
      "airportcode": "ybl",
      "abv": "cybl",
      "latitude": "49.950801849365234",
      "longitude": "-125.27100372314453",
      "altitude": "346",
      "timezone": "-8",
      "dst": "a",
      "timezonedb": "america/vancouver",
      "type": "airport",
      "source": "ourairports"
    },
    {
      "airportname": "brandon municipal airport",
      "city": "brandon",
      "country": "canada",
      "airportcode": "ybr",
      "abv": "cybr",
      "latitude": "49.91",
      "longitude": "-99.951897",
      "altitude": "1343",
      "timezone": "-6",
      "dst": "a",
      "timezonedb": "america/winnipeg",
      "type": "airport",
      "source": "ourairports"
    },
    {
      "airportname": "cambridge bay airport",
      "city": "cambridge bay",
      "country": "canada",
      "airportcode": "ycb",
      "abv": "cycb",
      "latitude": "69.1081008911",
      "longitude": "-105.138000488",
      "altitude": "90",
      "timezone": "-7",
      "dst": "a",
      "timezonedb": "america/edmonton",
      "type": "airport",
      "source": "ourairports"
    },
    {
      "airportname": "nanaimo airport",
      "city": "nanaimo",
      "country": "canada",
      "airportcode": "ycd",
      "abv": "cycd",
      "latitude": "49.054970224899996",
      "longitude": "-123.869862556",
      "altitude": "92",
      "timezone": "-8",
      "dst": "a",
      "timezonedb": "america/vancouver",
      "type": "airport",
      "source": "ourairports"
    },
    {
      "airportname": "castlegar/west kootenay regional airport",
      "city": "castlegar",
      "country": "canada",
      "airportcode": "ycg",
      "abv": "cycg",
      "latitude": "49.2963981628",
      "longitude": "-117.632003784",
      "altitude": "1624",
      "timezone": "-8",
      "dst": "a",
      "timezonedb": "america/vancouver",
      "type": "airport",
      "source": "ourairports"
    },
    {
      "airportname": "miramichi airport",
      "city": "chatham",
      "country": "canada",
      "airportcode": "ych",
      "abv": "cych",
      "latitude": "47.007801",
      "longitude": "-65.449203",
      "altitude": "108",
      "timezone": "-4",
      "dst": "a",
      "timezonedb": "america/halifax",
      "type": "airport",
      "source": "ourairports"
    },
    {
      "airportname": "charlo airport",
      "city": "charlo",
      "country": "canada",
      "airportcode": "ycl",
      "abv": "cycl",
      "latitude": "47.990799",
      "longitude": "-66.330299",
      "altitude": "132",
      "timezone": "-4",
      "dst": "a",
      "timezonedb": "america/halifax",
      "type": "airport",
      "source": "ourairports"
    },
    {
      "airportname": "kugluktuk airport",
      "city": "coppermine",
      "country": "canada",
      "airportcode": "yco",
      "abv": "cyco",
      "latitude": "67.81670379639999",
      "longitude": "-115.143997192",
      "altitude": "74",
      "timezone": "-7",
      "dst": "a",
      "timezonedb": "america/edmonton",
      "type": "airport",
      "source": "ourairports"
    },
    {
      "airportname": "coronation airport",
      "city": "coronation",
      "country": "canada",
      "airportcode": "yct",
      "abv": "cyct",
      "latitude": "52.0750007629",
      "longitude": "-111.444999695",
      "altitude": "2595",
      "timezone": "-7",
      "dst": "a",
      "timezonedb": "america/edmonton",
      "type": "airport",
      "source": "ourairports"
    },
    {
      "airportname": "chilliwack airport",
      "city": "chilliwack",
      "country": "canada",
      "airportcode": "ycw",
      "abv": "cycw",
      "latitude": "49.1528015137",
      "longitude": "-121.939002991",
      "altitude": "32",
      "timezone": "-8",
      "dst": "a",
      "timezonedb": "america/vancouver",
      "type": "airport",
      "source": "ourairports"
    },
    {
      "airportname": "clyde river airport",
      "city": "clyde river",
      "country": "canada",
      "airportcode": "ycy",
      "abv": "cycy",
      "latitude": "70.4860992432",
      "longitude": "-68.5167007446",
      "altitude": "87",
      "timezone": "-5",
      "dst": "a",
      "timezonedb": "america/toronto",
      "type": "airport",
      "source": "ourairports"
    },
    {
      "airportname": "coral harbour airport",
      "city": "coral harbour",
      "country": "canada",
      "airportcode": "yzs",
      "abv": "cyzs",
      "latitude": "64.1932983398",
      "longitude": "-83.3593978882",
      "altitude": "210",
      "timezone": "-5",
      "dst": "a",
      "timezonedb": "america/coral_harbour",
      "type": "airport",
      "source": "ourairports"
    },
    {
      "airportname": "dawson city airport",
      "city": "dawson",
      "country": "canada",
      "airportcode": "yda",
      "abv": "cyda",
      "latitude": "64.04309844970703",
      "longitude": "-139.1280059814453",
      "altitude": "1215",
      "timezone": "-8",
      "dst": "a",
      "timezonedb": "america/vancouver",
      "type": "airport",
      "source": "ourairports"
    },
    {
      "airportname": "burwash airport",
      "city": "burwash",
      "country": "canada",
      "airportcode": "ydb",
      "abv": "cydb",
      "latitude": "61.37110137939453",
      "longitude": "-139.04100036621094",
      "altitude": "2647",
      "timezone": "-8",
      "dst": "a",
      "timezonedb": "america/vancouver",
      "type": "airport",
      "source": "ourairports"
    },
    {
      "airportname": "princeton airport",
      "city": "princeton",
      "country": "canada",
      "airportcode": "ydc",
      "abv": "cydc",
      "latitude": "49.4681015015",
      "longitude": "-120.511001587",
      "altitude": "2298",
      "timezone": "-8",
      "dst": "a",
      "timezonedb": "america/vancouver",
      "type": "airport",
      "source": "ourairports"
    },
    {
      "airportname": "deer lake airport",
      "city": "deer lake",
      "country": "canada",
      "airportcode": "ydf",
      "abv": "cydf",
      "latitude": "49.21080017089844",
      "longitude": "-57.39139938354492",
      "altitude": "72",
      "timezone": "-3.5",
      "dst": "a",
      "timezonedb": "america/st_johns",
      "type": "airport",
      "source": "ourairports"
    },
    {
      "airportname": "dease lake airport",
      "city": "dease lake",
      "country": "canada",
      "airportcode": "ydl",
      "abv": "cydl",
      "latitude": "58.4221992493",
      "longitude": "-130.031997681",
      "altitude": "2600",
      "timezone": "-8",
      "dst": "a",
      "timezonedb": "america/vancouver",
      "type": "airport",
      "source": "ourairports"
    },
    {
      "airportname": "dauphin barker airport",
      "city": "dauphin",
      "country": "canada",
      "airportcode": "ydn",
      "abv": "cydn",
      "latitude": "51.100799560546875",
      "longitude": "-100.052001953125",
      "altitude": "999",
      "timezone": "-6",
      "dst": "a",
      "timezonedb": "america/winnipeg",
      "type": "airport",
      "source": "ourairports"
    },
    {
      "airportname": "dawson creek airport",
      "city": "dawson creek",
      "country": "canada",
      "airportcode": "ydq",
      "abv": "cydq",
      "latitude": "55.7422981262207",
      "longitude": "-120.18299865722656",
      "altitude": "2148",
      "timezone": "-7",
      "dst": "a",
      "timezonedb": "america/dawson_creek",
      "type": "airport",
      "source": "ourairports"
    },
    {
      "airportname": "edmonton international airport",
      "city": "edmonton",
      "country": "canada",
      "airportcode": "yeg",
      "abv": "cyeg",
      "latitude": "53.309700012200004",
      "longitude": "-113.580001831",
      "altitude": "2373",
      "timezone": "-7",
      "dst": "a",
      "timezonedb": "america/edmonton",
      "type": "airport",
      "source": "ourairports"
    },
    {
      "airportname": "arviat airport",
      "city": "eskimo point",
      "country": "canada",
      "airportcode": "yek",
      "abv": "cyek",
      "latitude": "61.0942001343",
      "longitude": "-94.07080078119999",
      "altitude": "32",
      "timezone": "-6",
      "dst": "a",
      "timezonedb": "america/winnipeg",
      "type": "airport",
      "source": "ourairports"
    },
    {
      "airportname": "estevan airport",
      "city": "estevan",
      "country": "canada",
      "airportcode": "yen",
      "abv": "cyen",
      "latitude": "49.2103004456",
      "longitude": "-102.966003418",
      "altitude": "1905",
      "timezone": "-6",
      "dst": "n",
      "timezonedb": "america/regina",
      "type": "airport",
      "source": "ourairports"
    },
    {
      "airportname": "edson airport",
      "city": "edson",
      "country": "canada",
      "airportcode": "yet",
      "abv": "cyet",
      "latitude": "53.578899383499994",
      "longitude": "-116.464996338",
      "altitude": "3043",
      "timezone": "-7",
      "dst": "a",
      "timezonedb": "america/edmonton",
      "type": "airport",
      "source": "ourairports"
    },
    {
      "airportname": "eureka airport",
      "city": "eureka",
      "country": "canada",
      "airportcode": "yeu",
      "abv": "cyeu",
      "latitude": "79.9946975708",
      "longitude": "-85.814201355",
      "altitude": "256",
      "timezone": "-6",
      "dst": "a",
      "timezonedb": "america/winnipeg",
      "type": "airport",
      "source": "ourairports"
    },
    {
      "airportname": "inuvik mike zubko airport",
      "city": "inuvik",
      "country": "canada",
      "airportcode": "yev",
      "abv": "cyev",
      "latitude": "68.30419921880001",
      "longitude": "-133.483001709",
      "altitude": "224",
      "timezone": "-7",
      "dst": "a",
      "timezonedb": "america/edmonton",
      "type": "airport",
      "source": "ourairports"
    },
    {
      "airportname": "iqaluit airport",
      "city": "iqaluit",
      "country": "canada",
      "airportcode": "yfb",
      "abv": "cyfb",
      "latitude": "63.756401062",
      "longitude": "-68.5558013916",
      "altitude": "110",
      "timezone": "-5",
      "dst": "a",
      "timezonedb": "america/toronto",
      "type": "airport",
      "source": "ourairports"
    },
    {
      "airportname": "fredericton airport",
      "city": "fredericton",
      "country": "canada",
      "airportcode": "yfc",
      "abv": "cyfc",
      "latitude": "45.868900299072266",
      "longitude": "-66.53720092773438",
      "altitude": "68",
      "timezone": "-4",
      "dst": "a",
      "timezonedb": "america/halifax",
      "type": "airport",
      "source": "ourairports"
    },
    {
      "airportname": "forestville airport",
      "city": "forestville",
      "country": "canada",
      "airportcode": null,
      "abv": "cyfe",
      "latitude": "48.74610137939453",
      "longitude": "-69.09719848632812",
      "altitude": "293",
      "timezone": "-5",
      "dst": "a",
      "timezonedb": "america/toronto",
      "type": "airport",
      "source": "ourairports"
    },
    {
      "airportname": "flin flon airport",
      "city": "flin flon",
      "country": "canada",
      "airportcode": "yfo",
      "abv": "cyfo",
      "latitude": "54.6781005859375",
      "longitude": "-101.68199920654297",
      "altitude": "997",
      "timezone": "-6",
      "dst": "a",
      "timezonedb": "america/winnipeg",
      "type": "airport",
      "source": "ourairports"
    },
    {
      "airportname": "fort resolution airport",
      "city": "fort resolution",
      "country": "canada",
      "airportcode": "yfr",
      "abv": "cyfr",
      "latitude": "61.1808013916",
      "longitude": "-113.690002441",
      "altitude": "526",
      "timezone": "-7",
      "dst": "a",
      "timezonedb": "america/edmonton",
      "type": "airport",
      "source": "ourairports"
    },
    {
      "airportname": "fort simpson airport",
      "city": "fort simpson",
      "country": "canada",
      "airportcode": "yfs",
      "abv": "cyfs",
      "latitude": "61.76020050048828",
      "longitude": "-121.23699951171875",
      "altitude": "555",
      "timezone": "-7",
      "dst": "a",
      "timezonedb": "america/edmonton",
      "type": "airport",
      "source": "ourairports"
    },
    {
      "airportname": "kingston norman rogers airport",
      "city": "kingston",
      "country": "canada",
      "airportcode": "ygk",
      "abv": "cygk",
      "latitude": "44.22529983520508",
      "longitude": "-76.5969009399414",
      "altitude": "305",
      "timezone": "-5",
      "dst": "a",
      "timezonedb": "america/toronto",
      "type": "airport",
      "source": "ourairports"
    },
    {
      "airportname": "la grande rivière airport",
      "city": "la grande riviere",
      "country": "canada",
      "airportcode": "ygl",
      "abv": "cygl",
      "latitude": "53.625301361083984",
      "longitude": "-77.7042007446289",
      "altitude": "639",
      "timezone": "-5",
      "dst": "a",
      "timezonedb": "america/toronto",
      "type": "airport",
      "source": "ourairports"
    },
    {
      "airportname": "gaspé (michel-pouliot) airport",
      "city": "gaspe",
      "country": "canada",
      "airportcode": "ygp",
      "abv": "cygp",
      "latitude": "48.7752990723",
      "longitude": "-64.4785995483",
      "altitude": "112",
      "timezone": "-5",
      "dst": "a",
      "timezonedb": "america/toronto",
      "type": "airport",
      "source": "ourairports"
    },
    {
      "airportname": "geraldton greenstone regional airport",
      "city": "geraldton",
      "country": "canada",
      "airportcode": "ygq",
      "abv": "cygq",
      "latitude": "49.77830123901367",
      "longitude": "-86.93939971923828",
      "altitude": "1144",
      "timezone": "-5",
      "dst": "a",
      "timezonedb": "america/toronto",
      "type": "airport",
      "source": "ourairports"
    },
    {
      "airportname": "îles-de-la-madeleine airport",
      "city": "iles de la madeleine",
      "country": "canada",
      "airportcode": "ygr",
      "abv": "cygr",
      "latitude": "47.42470169067383",
      "longitude": "-61.778099060058594",
      "altitude": "35",
      "timezone": "-5",
      "dst": "a",
      "timezonedb": "america/toronto",
      "type": "airport",
      "source": "ourairports"
    },
    {
      "airportname": "hudson bay airport",
      "city": "hudson bay",
      "country": "canada",
      "airportcode": "yhb",
      "abv": "cyhb",
      "latitude": "52.8166999817",
      "longitude": "-102.310997009",
      "altitude": "1175",
      "timezone": "-6",
      "dst": "n",
      "timezonedb": "america/regina",
      "type": "airport",
      "source": "ourairports"
    },
    {
      "airportname": "dryden regional airport",
      "city": "dryden",
      "country": "canada",
      "airportcode": "yhd",
      "abv": "cyhd",
      "latitude": "49.83169937133789",
      "longitude": "-92.74420166015625",
      "altitude": "1354",
      "timezone": "-6",
      "dst": "a",
      "timezonedb": "america/winnipeg",
      "type": "airport",
      "source": "ourairports"
    },
    {
      "airportname": "ulukhaktok holman airport",
      "city": "holman island",
      "country": "canada",
      "airportcode": "yhi",
      "abv": "cyhi",
      "latitude": "70.76280212402344",
      "longitude": "-117.80599975585938",
      "altitude": "117",
      "timezone": "-7",
      "dst": "a",
      "timezonedb": "america/edmonton",
      "type": "airport",
      "source": "ourairports"
    },
    {
      "airportname": "gjoa haven airport",
      "city": "gjoa haven",
      "country": "canada",
      "airportcode": "yhk",
      "abv": "cyhk",
      "latitude": "68.635597229",
      "longitude": "-95.84970092770001",
      "altitude": "152",
      "timezone": "-7",
      "dst": "a",
      "timezonedb": "america/edmonton",
      "type": "airport",
      "source": "ourairports"
    },
    {
      "airportname": "john c. munro hamilton international airport",
      "city": "hamilton",
      "country": "canada",
      "airportcode": "yhm",
      "abv": "cyhm",
      "latitude": "43.173599243199995",
      "longitude": "-79.93499755859999",
      "altitude": "780",
      "timezone": "-5",
      "dst": "a",
      "timezonedb": "america/toronto",
      "type": "airport",
      "source": "ourairports"
    },
    {
      "airportname": "montréal / saint-hubert airport",
      "city": "montreal",
      "country": "canada",
      "airportcode": "yhu",
      "abv": "cyhu",
      "latitude": "45.5175018311",
      "longitude": "-73.4169006348",
      "altitude": "90",
      "timezone": "-5",
      "dst": "a",
      "timezonedb": "america/toronto",
      "type": "airport",
      "source": "ourairports"
    },
    {
      "airportname": "hay river / merlyn carter airport",
      "city": "hay river",
      "country": "canada",
      "airportcode": "yhy",
      "abv": "cyhy",
      "latitude": "60.8396987915",
      "longitude": "-115.782997131",
      "altitude": "541",
      "timezone": "-7",
      "dst": "a",
      "timezonedb": "america/edmonton",
      "type": "airport",
      "source": "ourairports"
    },
    {
      "airportname": "halifax / stanfield international airport",
      "city": "halifax",
      "country": "canada",
      "airportcode": "yhz",
      "abv": "cyhz",
      "latitude": "44.8807983398",
      "longitude": "-63.5085983276",
      "altitude": "477",
      "timezone": "-4",
      "dst": "a",
      "timezonedb": "america/halifax",
      "type": "airport",
      "source": "ourairports"
    },
    {
      "airportname": "atikokan municipal airport",
      "city": "atikokan",
      "country": "canada",
      "airportcode": "yib",
      "abv": "cyib",
      "latitude": "48.7738990784",
      "longitude": "-91.6386032104",
      "altitude": "1408",
      "timezone": "-5",
      "dst": "a",
      "timezonedb": "america/coral_harbour",
      "type": "airport",
      "source": "ourairports"
    },
    {
      "airportname": "pond inlet airport",
      "city": "pond inlet",
      "country": "canada",
      "airportcode": "yio",
      "abv": "cyio",
      "latitude": "72.6832962036",
      "longitude": "-77.9666976929",
      "altitude": "181",
      "timezone": "-5",
      "dst": "a",
      "timezonedb": "america/toronto",
      "type": "airport",
      "source": "ourairports"
    },
    {
      "airportname": "st jean airport",
      "city": "st. jean",
      "country": "canada",
      "airportcode": "yjn",
      "abv": "cyjn",
      "latitude": "45.29439926147461",
      "longitude": "-73.28109741210938",
      "altitude": "136",
      "timezone": "-5",
      "dst": "a",
      "timezonedb": "america/toronto",
      "type": "airport",
      "source": "ourairports"
    },
    {
      "airportname": "stephenville airport",
      "city": "stephenville",
      "country": "canada",
      "airportcode": "yjt",
      "abv": "cyjt",
      "latitude": "48.5442008972168",
      "longitude": "-58.54999923706055",
      "altitude": "84",
      "timezone": "-3.5",
      "dst": "a",
      "timezonedb": "america/st_johns",
      "type": "airport",
      "source": "ourairports"
    },
    {
      "airportname": "kamloops airport",
      "city": "kamloops",
      "country": "canada",
      "airportcode": "yka",
      "abv": "cyka",
      "latitude": "50.7022018433",
      "longitude": "-120.444000244",
      "altitude": "1133",
      "timezone": "-8",
      "dst": "a",
      "timezonedb": "america/vancouver",
      "type": "airport",
      "source": "ourairports"
    },
    {
      "airportname": "waterloo airport",
      "city": "waterloo",
      "country": "canada",
      "airportcode": "ykf",
      "abv": "cykf",
      "latitude": "43.460800170899994",
      "longitude": "-80.3786010742",
      "altitude": "1055",
      "timezone": "-5",
      "dst": "a",
      "timezonedb": "america/toronto",
      "type": "airport",
      "source": "ourairports"
    },
    {
      "airportname": "schefferville airport",
      "city": "schefferville",
      "country": "canada",
      "airportcode": "ykl",
      "abv": "cykl",
      "latitude": "54.805301666259766",
      "longitude": "-66.8052978515625",
      "altitude": "1709",
      "timezone": "-5",
      "dst": "a",
      "timezonedb": "america/toronto",
      "type": "airport",
      "source": "ourairports"
    },
    {
      "airportname": "kindersley airport",
      "city": "kindersley",
      "country": "canada",
      "airportcode": "yky",
      "abv": "cyky",
      "latitude": "51.5175018311",
      "longitude": "-109.180999756",
      "altitude": "2277",
      "timezone": "-6",
      "dst": "n",
      "timezonedb": "america/regina",
      "type": "airport",
      "source": "ourairports"
    },
    {
      "airportname": "buttonville municipal airport",
      "city": "toronto",
      "country": "canada",
      "airportcode": "ykz",
      "abv": "cykz",
      "latitude": "43.86220169067383",
      "longitude": "-79.37000274658203",
      "altitude": "650",
      "timezone": "-5",
      "dst": "a",
      "timezonedb": "america/toronto",
      "type": "airport",
      "source": "ourairports"
    },
    {
      "airportname": "chapleau airport",
      "city": "chapleau",
      "country": "canada",
      "airportcode": "yld",
      "abv": "cyld",
      "latitude": "47.81999969482422",
      "longitude": "-83.3467025756836",
      "altitude": "1470",
      "timezone": "-5",
      "dst": "a",
      "timezonedb": "america/toronto",
      "type": "airport",
      "source": "ourairports"
    },
    {
      "airportname": "meadow lake airport",
      "city": "meadow lake",
      "country": "canada",
      "airportcode": "ylj",
      "abv": "cylj",
      "latitude": "54.125301361083984",
      "longitude": "-108.52300262451172",
      "altitude": "1576",
      "timezone": "-6",
      "dst": "n",
      "timezonedb": "america/regina",
      "type": "airport",
      "source": "ourairports"
    },
    {
      "airportname": "lloydminster airport",
      "city": "lloydminster",
      "country": "canada",
      "airportcode": "yll",
      "abv": "cyll",
      "latitude": "53.309200286865234",
      "longitude": "-110.072998046875",
      "altitude": "2193",
      "timezone": "-7",
      "dst": "a",
      "timezonedb": "america/edmonton",
      "type": "airport",
      "source": "ourairports"
    },
    {
      "airportname": "alert airport",
      "city": "alert",
      "country": "canada",
      "airportcode": "ylt",
      "abv": "cylt",
      "latitude": "82.51779937740001",
      "longitude": "-62.2806015015",
      "altitude": "100",
      "timezone": "-5",
      "dst": "a",
      "timezonedb": "america/toronto",
      "type": "airport",
      "source": "ourairports"
    },
    {
      "airportname": "kelowna international airport",
      "city": "kelowna",
      "country": "canada",
      "airportcode": "ylw",
      "abv": "cylw",
      "latitude": "49.9561004639",
      "longitude": "-119.377998352",
      "altitude": "1421",
      "timezone": "-8",
      "dst": "a",
      "timezonedb": "america/vancouver",
      "type": "airport",
      "source": "ourairports"
    },
    {
      "airportname": "mayo airport",
      "city": "mayo",
      "country": "canada",
      "airportcode": "yma",
      "abv": "cyma",
      "latitude": "63.61640167236328",
      "longitude": "-135.8679962158203",
      "altitude": "1653",
      "timezone": "-8",
      "dst": "a",
      "timezonedb": "america/vancouver",
      "type": "airport",
      "source": "ourairports"
    },
    {
      "airportname": "moose jaw air vice marshal c. m. mcewen airport",
      "city": "moose jaw",
      "country": "canada",
      "airportcode": "ymj",
      "abv": "cymj",
      "latitude": "50.330299377441406",
      "longitude": "-105.55899810791016",
      "altitude": "1892",
      "timezone": "-6",
      "dst": "n",
      "timezonedb": "america/regina",
      "type": "airport",
      "source": "ourairports"
    },
    {
      "airportname": "fort mcmurray airport",
      "city": "fort mcmurray",
      "country": "canada",
      "airportcode": "ymm",
      "abv": "cymm",
      "latitude": "56.653301239",
      "longitude": "-111.222000122",
      "altitude": "1211",
      "timezone": "-7",
      "dst": "a",
      "timezonedb": "america/edmonton",
      "type": "airport",
      "source": "ourairports"
    },
    {
      "airportname": "moosonee airport",
      "city": "moosonee",
      "country": "canada",
      "airportcode": "ymo",
      "abv": "cymo",
      "latitude": "51.291099548339844",
      "longitude": "-80.60780334472656",
      "altitude": "30",
      "timezone": "-5",
      "dst": "a",
      "timezonedb": "america/toronto",
      "type": "airport",
      "source": "ourairports"
    },
    {
      "airportname": "maniwaki airport",
      "city": "maniwaki",
      "country": "canada",
      "airportcode": "ymw",
      "abv": "cymw",
      "latitude": "46.2728004456",
      "longitude": "-75.9906005859",
      "altitude": "656",
      "timezone": "-5",
      "dst": "a",
      "timezonedb": "america/toronto",
      "type": "airport",
      "source": "ourairports"
    },
    {
      "airportname": "montreal international (mirabel) airport",
      "city": "montreal",
      "country": "canada",
      "airportcode": "ymx",
      "abv": "cymx",
      "latitude": "45.6795005798",
      "longitude": "-74.0386962891",
      "altitude": "270",
      "timezone": "-5",
      "dst": "a",
      "timezonedb": "america/toronto",
      "type": "airport",
      "source": "ourairports"
    },
    {
      "airportname": "natashquan airport",
      "city": "natashquan",
      "country": "canada",
      "airportcode": "yna",
      "abv": "cyna",
      "latitude": "50.189998626708984",
      "longitude": "-61.78919982910156",
      "altitude": "39",
      "timezone": "-5",
      "dst": "a",
      "timezonedb": "america/toronto",
      "type": "airport",
      "source": "ourairports"
    },
    {
      "airportname": "ottawa / gatineau airport",
      "city": "gatineau",
      "country": "canada",
      "airportcode": "ynd",
      "abv": "cynd",
      "latitude": "45.521701812699995",
      "longitude": "-75.5635986328",
      "altitude": "211",
      "timezone": "-5",
      "dst": "a",
      "timezonedb": "america/toronto",
      "type": "airport",
      "source": "ourairports"
    },
    {
      "airportname": "matagami airport",
      "city": "matagami",
      "country": "canada",
      "airportcode": "ynm",
      "abv": "cynm",
      "latitude": "49.76169967651367",
      "longitude": "-77.80280303955078",
      "altitude": "918",
      "timezone": "-5",
      "dst": "a",
      "timezonedb": "america/toronto",
      "type": "airport",
      "source": "ourairports"
    },
    {
      "airportname": "old crow airport",
      "city": "old crow",
      "country": "canada",
      "airportcode": "yoc",
      "abv": "cyoc",
      "latitude": "67.57060241699219",
      "longitude": "-139.83900451660156",
      "altitude": "824",
      "timezone": "-8",
      "dst": "a",
      "timezonedb": "america/vancouver",
      "type": "airport",
      "source": "ourairports"
    },
    {
      "airportname": "cfb cold lake",
      "city": "cold lake",
      "country": "canada",
      "airportcode": "yod",
      "abv": "cyod",
      "latitude": "54.404998779296875",
      "longitude": "-110.27899932861328",
      "altitude": "1775",
      "timezone": "-7",
      "dst": "a",
      "timezonedb": "america/edmonton",
      "type": "airport",
      "source": "ourairports"
    },
    {
      "airportname": "high level airport",
      "city": "high level",
      "country": "canada",
      "airportcode": "yoj",
      "abv": "cyoj",
      "latitude": "58.62139892578125",
      "longitude": "-117.16500091552734",
      "altitude": "1110",
      "timezone": "-7",
      "dst": "a",
      "timezonedb": "america/edmonton",
      "type": "airport",
      "source": "ourairports"
    },
    {
      "airportname": "ottawa macdonald-cartier international airport",
      "city": "ottawa",
      "country": "canada",
      "airportcode": "yow",
      "abv": "cyow",
      "latitude": "45.3224983215332",
      "longitude": "-75.66919708251953",
      "altitude": "374",
      "timezone": "-5",
      "dst": "a",
      "timezonedb": "america/toronto",
      "type": "airport",
      "source": "ourairports"
    },
    {
      "airportname": "prince albert glass field",
      "city": "prince albert",
      "country": "canada",
      "airportcode": "ypa",
      "abv": "cypa",
      "latitude": "53.214199066199996",
      "longitude": "-105.672996521",
      "altitude": "1405",
      "timezone": "-6",
      "dst": "n",
      "timezonedb": "america/regina",
      "type": "airport",
      "source": "ourairports"
    },
    {
      "airportname": "peace river airport",
      "city": "peace river",
      "country": "canada",
      "airportcode": "ype",
      "abv": "cype",
      "latitude": "56.226898193359375",
      "longitude": "-117.4469985961914",
      "altitude": "1873",
      "timezone": "-7",
      "dst": "a",
      "timezonedb": "america/edmonton",
      "type": "airport",
      "source": "ourairports"
    },
    {
      "airportname": "southport airport",
      "city": "portage-la-prairie",
      "country": "canada",
      "airportcode": "ypg",
      "abv": "cypg",
      "latitude": "49.903099",
      "longitude": "-98.273817",
      "altitude": "885",
      "timezone": "-6",
      "dst": "a",
      "timezonedb": "america/winnipeg",
      "type": "airport",
      "source": "ourairports"
    },
    {
      "airportname": "pitt meadows airport",
      "city": "pitt meadows",
      "country": "canada",
      "airportcode": null,
      "abv": "cypk",
      "latitude": "49.21609878540039",
      "longitude": "-122.70999908447266",
      "altitude": "11",
      "timezone": "-8",
      "dst": "a",
      "timezonedb": "america/vancouver",
      "type": "airport",
      "source": "ourairports"
    },
    {
      "airportname": "pickle lake airport",
      "city": "pickle lake",
      "country": "canada",
      "airportcode": "ypl",
      "abv": "cypl",
      "latitude": "51.4463996887207",
      "longitude": "-90.21420288085938",
      "altitude": "1267",
      "timezone": "-5",
      "dst": "a",
      "timezonedb": "america/coral_harbour",
      "type": "airport",
      "source": "ourairports"
    },
    {
      "airportname": "port menier airport",
      "city": "port menier",
      "country": "canada",
      "airportcode": "ypn",
      "abv": "cypn",
      "latitude": "49.83639907836914",
      "longitude": "-64.2885971069336",
      "altitude": "167",
      "timezone": "-5",
      "dst": "a",
      "timezonedb": "america/toronto",
      "type": "airport",
      "source": "ourairports"
    },
    {
      "airportname": "peterborough airport",
      "city": "peterborough",
      "country": "canada",
      "airportcode": "ypq",
      "abv": "cypq",
      "latitude": "44.22999954223633",
      "longitude": "-78.36329650878906",
      "altitude": "628",
      "timezone": "-5",
      "dst": "a",
      "timezonedb": "america/toronto",
      "type": "airport",
      "source": "ourairports"
    },
    {
      "airportname": "prince rupert airport",
      "city": "prince pupert",
      "country": "canada",
      "airportcode": "ypr",
      "abv": "cypr",
      "latitude": "54.286098480199996",
      "longitude": "-130.445007324",
      "altitude": "116",
      "timezone": "-8",
      "dst": "a",
      "timezonedb": "america/vancouver",
      "type": "airport",
      "source": "ourairports"
    },
    {
      "airportname": "fort chipewyan airport",
      "city": "fort chipewyan",
      "country": "canada",
      "airportcode": "ypy",
      "abv": "cypy",
      "latitude": "58.7672004699707",
      "longitude": "-111.11699676513672",
      "altitude": "761",
      "timezone": "-7",
      "dst": "a",
      "timezonedb": "america/edmonton",
      "type": "airport",
      "source": "ourairports"
    },
    {
      "airportname": "muskoka airport",
      "city": "muskoka",
      "country": "canada",
      "airportcode": "yqa",
      "abv": "cyqa",
      "latitude": "44.974700927734375",
      "longitude": "-79.30329895019531",
      "altitude": "925",
      "timezone": "-5",
      "dst": "a",
      "timezonedb": "america/toronto",
      "type": "airport",
      "source": "ourairports"
    },
    {
      "airportname": "quebec jean lesage international airport",
      "city": "quebec",
      "country": "canada",
      "airportcode": "yqb",
      "abv": "cyqb",
      "latitude": "46.7911",
      "longitude": "-71.393303",
      "altitude": "244",
      "timezone": "-5",
      "dst": "a",
      "timezonedb": "america/toronto",
      "type": "airport",
      "source": "ourairports"
    },
    {
      "airportname": "red deer regional airport",
      "city": "red deer industrial",
      "country": "canada",
      "airportcode": "yqf",
      "abv": "cyqf",
      "latitude": "52.18220138549805",
      "longitude": "-113.89399719238281",
      "altitude": "2968",
      "timezone": "-7",
      "dst": "a",
      "timezonedb": "america/edmonton",
      "type": "airport",
      "source": "ourairports"
    },
    {
      "airportname": "windsor airport",
      "city": "windsor",
      "country": "canada",
      "airportcode": "yqg",
      "abv": "cyqg",
      "latitude": "42.27560043334961",
      "longitude": "-82.95559692382812",
      "altitude": "622",
      "timezone": "-5",
      "dst": "a",
      "timezonedb": "america/toronto",
      "type": "airport",
      "source": "ourairports"
    },
    {
      "airportname": "watson lake airport",
      "city": "watson lake",
      "country": "canada",
      "airportcode": "yqh",
      "abv": "cyqh",
      "latitude": "60.11640167236328",
      "longitude": "-128.82200622558594",
      "altitude": "2255",
      "timezone": "-8",
      "dst": "a",
      "timezonedb": "america/vancouver",
      "type": "airport",
      "source": "ourairports"
    },
    {
      "airportname": "kenora airport",
      "city": "kenora",
      "country": "canada",
      "airportcode": "yqk",
      "abv": "cyqk",
      "latitude": "49.788299560546875",
      "longitude": "-94.36309814453125",
      "altitude": "1332",
      "timezone": "-6",
      "dst": "a",
      "timezonedb": "america/winnipeg",
      "type": "airport",
      "source": "ourairports"
    },
    {
      "airportname": "lethbridge county airport",
      "city": "lethbridge",
      "country": "canada",
      "airportcode": "yql",
      "abv": "cyql",
      "latitude": "49.6302986145",
      "longitude": "-112.800003052",
      "altitude": "3048",
      "timezone": "-7",
      "dst": "a",
      "timezonedb": "america/edmonton",
      "type": "airport",
      "source": "ourairports"
    },
    {
      "airportname": "greater moncton international airport",
      "city": "moncton",
      "country": "canada",
      "airportcode": "yqm",
      "abv": "cyqm",
      "latitude": "46.11220169067383",
      "longitude": "-64.67859649658203",
      "altitude": "232",
      "timezone": "-4",
      "dst": "a",
      "timezonedb": "america/halifax",
      "type": "airport",
      "source": "ourairports"
    },
    {
      "airportname": "comox airport",
      "city": "comox",
      "country": "canada",
      "airportcode": "yqq",
      "abv": "cyqq",
      "latitude": "49.71080017089844",
      "longitude": "-124.88700103759766",
      "altitude": "84",
      "timezone": "-8",
      "dst": "a",
      "timezonedb": "america/vancouver",
      "type": "airport",
      "source": "ourairports"
    },
    {
      "airportname": "regina international airport",
      "city": "regina",
      "country": "canada",
      "airportcode": "yqr",
      "abv": "cyqr",
      "latitude": "50.43190002441406",
      "longitude": "-104.66600036621094",
      "altitude": "1894",
      "timezone": "-6",
      "dst": "n",
      "timezonedb": "america/regina",
      "type": "airport",
      "source": "ourairports"
    },
    {
      "airportname": "thunder bay airport",
      "city": "thunder bay",
      "country": "canada",
      "airportcode": "yqt",
      "abv": "cyqt",
      "latitude": "48.37189865112305",
      "longitude": "-89.32389831542969",
      "altitude": "653",
      "timezone": "-5",
      "dst": "a",
      "timezonedb": "america/toronto",
      "type": "airport",
      "source": "ourairports"
    },
    {
      "airportname": "grande prairie airport",
      "city": "grande prairie",
      "country": "canada",
      "airportcode": "yqu",
      "abv": "cyqu",
      "latitude": "55.1796989441",
      "longitude": "-118.885002136",
      "altitude": "2195",
      "timezone": "-7",
      "dst": "a",
      "timezonedb": "america/edmonton",
      "type": "airport",
      "source": "ourairports"
    },
    {
      "airportname": "yorkton municipal airport",
      "city": "yorkton",
      "country": "canada",
      "airportcode": "yqv",
      "abv": "cyqv",
      "latitude": "51.26470184326172",
      "longitude": "-102.46199798583984",
      "altitude": "1635",
      "timezone": "-6",
      "dst": "n",
      "timezonedb": "america/regina",
      "type": "airport",
      "source": "ourairports"
    },
    {
      "airportname": "north battleford airport",
      "city": "north battleford",
      "country": "canada",
      "airportcode": "yqw",
      "abv": "cyqw",
      "latitude": "52.76919937133789",
      "longitude": "-108.24400329589844",
      "altitude": "1799",
      "timezone": "-6",
      "dst": "n",
      "timezonedb": "america/regina",
      "type": "airport",
      "source": "ourairports"
    },
    {
      "airportname": "gander international airport",
      "city": "gander",
      "country": "canada",
      "airportcode": "yqx",
      "abv": "cyqx",
      "latitude": "48.9369010925293",
      "longitude": "-54.56809997558594",
      "altitude": "496",
      "timezone": "-3.5",
      "dst": "a",
      "timezonedb": "america/st_johns",
      "type": "airport",
      "source": "ourairports"
    },
    {
      "airportname": "sydney / j.a. douglas mccurdy airport",
      "city": "sydney",
      "country": "canada",
      "airportcode": "yqy",
      "abv": "cyqy",
      "latitude": "46.161399841299996",
      "longitude": "-60.0477981567",
      "altitude": "203",
      "timezone": "-4",
      "dst": "a",
      "timezonedb": "america/halifax",
      "type": "airport",
      "source": "ourairports"
    },
    {
      "airportname": "quesnel airport",
      "city": "quesnel",
      "country": "canada",
      "airportcode": "yqz",
      "abv": "cyqz",
      "latitude": "53.026100158691406",
      "longitude": "-122.51000213623047",
      "altitude": "1789",
      "timezone": "-8",
      "dst": "a",
      "timezonedb": "america/vancouver",
      "type": "airport",
      "source": "ourairports"
    },
    {
      "airportname": "resolute bay airport",
      "city": "resolute",
      "country": "canada",
      "airportcode": "yrb",
      "abv": "cyrb",
      "latitude": "74.7169036865",
      "longitude": "-94.9693984985",
      "altitude": "215",
      "timezone": "-6",
      "dst": "a",
      "timezonedb": "america/winnipeg",
      "type": "airport",
      "source": "ourairports"
    },
    {
      "airportname": "rivière-du-loup airport",
      "city": "riviere du loup",
      "country": "canada",
      "airportcode": "yri",
      "abv": "cyri",
      "latitude": "47.764400482177734",
      "longitude": "-69.58470153808594",
      "altitude": "427",
      "timezone": "-5",
      "dst": "a",
      "timezonedb": "america/toronto",
      "type": "airport",
      "source": "ourairports"
    },
    {
      "airportname": "roberval airport",
      "city": "roberval",
      "country": "canada",
      "airportcode": "yrj",
      "abv": "cyrj",
      "latitude": "48.52000045776367",
      "longitude": "-72.2656021118164",
      "altitude": "586",
      "timezone": "-5",
      "dst": "a",
      "timezonedb": "america/toronto",
      "type": "airport",
      "source": "ourairports"
    },
    {
      "airportname": "rocky mountain house airport",
      "city": "rocky mountain house",
      "country": "canada",
      "airportcode": "yrm",
      "abv": "cyrm",
      "latitude": "52.4296989441",
      "longitude": "-114.903999329",
      "altitude": "3244",
      "timezone": "-7",
      "dst": "a",
      "timezonedb": "america/edmonton",
      "type": "airport",
      "source": "ourairports"
    },
    {
      "airportname": "rankin inlet airport",
      "city": "rankin inlet",
      "country": "canada",
      "airportcode": "yrt",
      "abv": "cyrt",
      "latitude": "62.8114013672",
      "longitude": "-92.1157989502",
      "altitude": "94",
      "timezone": "-6",
      "dst": "a",
      "timezonedb": "america/winnipeg",
      "type": "airport",
      "source": "ourairports"
    },
    {
      "airportname": "sudbury airport",
      "city": "sudbury",
      "country": "canada",
      "airportcode": "ysb",
      "abv": "cysb",
      "latitude": "46.625",
      "longitude": "-80.79889678955078",
      "altitude": "1141",
      "timezone": "-5",
      "dst": "a",
      "timezonedb": "america/toronto",
      "type": "airport",
      "source": "ourairports"
    },
    {
      "airportname": "sherbrooke airport",
      "city": "sherbrooke",
      "country": "canada",
      "airportcode": "ysc",
      "abv": "cysc",
      "latitude": "45.4385986328125",
      "longitude": "-71.69139862060547",
      "altitude": "792",
      "timezone": "-5",
      "dst": "a",
      "timezonedb": "america/toronto",
      "type": "airport",
      "source": "ourairports"
    },
    {
      "airportname": "saint john airport",
      "city": "st. john",
      "country": "canada",
      "airportcode": "ysj",
      "abv": "cysj",
      "latitude": "45.31610107421875",
      "longitude": "-65.89029693603516",
      "altitude": "357",
      "timezone": "-4",
      "dst": "a",
      "timezonedb": "america/halifax",
      "type": "airport",
      "source": "ourairports"
    },
    {
      "airportname": "fort smith airport",
      "city": "fort smith",
      "country": "canada",
      "airportcode": "ysm",
      "abv": "cysm",
      "latitude": "60.020301818847656",
      "longitude": "-111.96199798583984",
      "altitude": "671",
      "timezone": "-7",
      "dst": "a",
      "timezonedb": "america/edmonton",
      "type": "airport",
      "source": "ourairports"
    },
    {
      "airportname": "nanisivik airport",
      "city": "nanisivik",
      "country": "canada",
      "airportcode": "ysr",
      "abv": "cysr",
      "latitude": "72.982201",
      "longitude": "-84.613602",
      "altitude": "2106",
      "timezone": "-5",
      "dst": "a",
      "timezonedb": "america/toronto",
      "type": "airport",
      "source": "ourairports"
    },
    {
      "airportname": "summerside airport",
      "city": "summerside",
      "country": "canada",
      "airportcode": "ysu",
      "abv": "cysu",
      "latitude": "46.44060134887695",
      "longitude": "-63.83359909057617",
      "altitude": "56",
      "timezone": "-4",
      "dst": "a",
      "timezonedb": "america/halifax",
      "type": "airport",
      "source": "ourairports"
    },
    {
      "airportname": "sachs harbour (david nasogaluak jr. saaryuaq) airport",
      "city": "sachs harbour",
      "country": "canada",
      "airportcode": "ysy",
      "abv": "cysy",
      "latitude": "71.9938964844",
      "longitude": "-125.242996216",
      "altitude": "282",
      "timezone": "-7",
      "dst": "a",
      "timezonedb": "america/edmonton",
      "type": "airport",
      "source": "ourairports"
    },
    {
      "airportname": "cape dorset airport",
      "city": "cape dorset",
      "country": "canada",
      "airportcode": "yte",
      "abv": "cyte",
      "latitude": "64.2300033569",
      "longitude": "-76.5267028809",
      "altitude": "164",
      "timezone": "-5",
      "dst": "a",
      "timezonedb": "america/toronto",
      "type": "airport",
      "source": "ourairports"
    },
    {
      "airportname": "thompson airport",
      "city": "thompson",
      "country": "canada",
      "airportcode": "yth",
      "abv": "cyth",
      "latitude": "55.80110168457031",
      "longitude": "-97.86419677734375",
      "altitude": "729",
      "timezone": "-6",
      "dst": "a",
      "timezonedb": "america/winnipeg",
      "type": "airport",
      "source": "ourairports"
    },
    {
      "airportname": "cfb trenton",
      "city": "trenton",
      "country": "canada",
      "airportcode": "ytr",
      "abv": "cytr",
      "latitude": "44.118900299072266",
      "longitude": "-77.5280990600586",
      "altitude": "283",
      "timezone": "-5",
      "dst": "a",
      "timezonedb": "america/toronto",
      "type": "airport",
      "source": "ourairports"
    },
    {
      "airportname": "timmins/victor m. power",
      "city": "timmins",
      "country": "canada",
      "airportcode": "yts",
      "abv": "cyts",
      "latitude": "48.569698333699996",
      "longitude": "-81.376701355",
      "altitude": "967",
      "timezone": "-5",
      "dst": "a",
      "timezonedb": "america/toronto",
      "type": "airport",
      "source": "ourairports"
    },
    {
      "airportname": "billy bishop toronto city centre airport",
      "city": "toronto",
      "country": "canada",
      "airportcode": "ytz",
      "abv": "cytz",
      "latitude": "43.627499",
      "longitude": "-79.396202",
      "altitude": "252",
      "timezone": "-5",
      "dst": "a",
      "timezonedb": "america/toronto",
      "type": "airport",
      "source": "ourairports"
    },
    {
      "airportname": "tuktoyaktuk airport",
      "city": "tuktoyaktuk",
      "country": "canada",
      "airportcode": "yub",
      "abv": "cyub",
      "latitude": "69.43329620361328",
      "longitude": "-133.0260009765625",
      "altitude": "15",
      "timezone": "-7",
      "dst": "a",
      "timezonedb": "america/edmonton",
      "type": "airport",
      "source": "ourairports"
    },
    {
      "airportname": "montreal / pierre elliott trudeau international airport",
      "city": "montreal",
      "country": "canada",
      "airportcode": "yul",
      "abv": "cyul",
      "latitude": "45.4706001282",
      "longitude": "-73.7407989502",
      "altitude": "118",
      "timezone": "-5",
      "dst": "a",
      "timezonedb": "america/toronto",
      "type": "airport",
      "source": "ourairports"
    },
    {
      "airportname": "repulse bay airport",
      "city": "repulse bay",
      "country": "canada",
      "airportcode": "yut",
      "abv": "cyut",
      "latitude": "66.5214004517",
      "longitude": "-86.22470092770001",
      "altitude": "80",
      "timezone": "-6",
      "dst": "a",
      "timezonedb": "america/winnipeg",
      "type": "airport",
      "source": "ourairports"
    },
    {
      "airportname": "hall beach airport",
      "city": "hall beach",
      "country": "canada",
      "airportcode": "yux",
      "abv": "cyux",
      "latitude": "68.77610015869999",
      "longitude": "-81.2425",
      "altitude": "30",
      "timezone": "-5",
      "dst": "a",
      "timezonedb": "america/toronto",
      "type": "airport",
      "source": "ourairports"
    },
    {
      "airportname": "rouyn noranda airport",
      "city": "rouyn",
      "country": "canada",
      "airportcode": "yuy",
      "abv": "cyuy",
      "latitude": "48.20610046386719",
      "longitude": "-78.83560180664062",
      "altitude": "988",
      "timezone": "-5",
      "dst": "a",
      "timezonedb": "america/toronto",
      "type": "airport",
      "source": "ourairports"
    },
    {
      "airportname": "la ronge airport",
      "city": "la ronge",
      "country": "canada",
      "airportcode": "yvc",
      "abv": "cyvc",
      "latitude": "55.151401519800004",
      "longitude": "-105.262001038",
      "altitude": "1242",
      "timezone": "-6",
      "dst": "n",
      "timezonedb": "america/regina",
      "type": "airport",
      "source": "ourairports"
    },
    {
      "airportname": "vermilion airport",
      "city": "vermillion",
      "country": "canada",
      "airportcode": "yvg",
      "abv": "cyvg",
      "latitude": "53.355800628699996",
      "longitude": "-110.823997498",
      "altitude": "2025",
      "timezone": "-7",
      "dst": "a",
      "timezonedb": "america/edmonton",
      "type": "airport",
      "source": "ourairports"
    },
    {
      "airportname": "qikiqtarjuaq airport",
      "city": "broughton island",
      "country": "canada",
      "airportcode": "yvm",
      "abv": "cyvm",
      "latitude": "67.5457992554",
      "longitude": "-64.03140258789999",
      "altitude": "21",
      "timezone": "-5",
      "dst": "a",
      "timezonedb": "america/toronto",
      "type": "airport",
      "source": "ourairports"
    },
    {
      "airportname": "val-d'or airport",
      "city": "val d'or",
      "country": "canada",
      "airportcode": "yvo",
      "abv": "cyvo",
      "latitude": "48.0532989502",
      "longitude": "-77.7827987671",
      "altitude": "1107",
      "timezone": "-5",
      "dst": "a",
      "timezonedb": "america/toronto",
      "type": "airport",
      "source": "ourairports"
    },
    {
      "airportname": "kuujjuaq airport",
      "city": "quujjuaq",
      "country": "canada",
      "airportcode": "yvp",
      "abv": "cyvp",
      "latitude": "58.096099853515625",
      "longitude": "-68.4269027709961",
      "altitude": "129",
      "timezone": "-5",
      "dst": "a",
      "timezonedb": "america/toronto",
      "type": "airport",
      "source": "ourairports"
    },
    {
      "airportname": "norman wells airport",
      "city": "norman wells",
      "country": "canada",
      "airportcode": "yvq",
      "abv": "cyvq",
      "latitude": "65.28160095214844",
      "longitude": "-126.7979965209961",
      "altitude": "238",
      "timezone": "-7",
      "dst": "a",
      "timezonedb": "america/edmonton",
      "type": "airport",
      "source": "ourairports"
    },
    {
      "airportname": "vancouver international airport",
      "city": "vancouver",
      "country": "canada",
      "airportcode": "yvr",
      "abv": "cyvr",
      "latitude": "49.193901062",
      "longitude": "-123.183998108",
      "altitude": "14",
      "timezone": "-8",
      "dst": "a",
      "timezonedb": "america/vancouver",
      "type": "airport",
      "source": "ourairports"
    },
    {
      "airportname": "buffalo narrows airport",
      "city": "buffalo narrows",
      "country": "canada",
      "airportcode": "yvt",
      "abv": "cyvt",
      "latitude": "55.8418998718",
      "longitude": "-108.417999268",
      "altitude": "1423",
      "timezone": "-6",
      "dst": "n",
      "timezonedb": "america/regina",
      "type": "airport",
      "source": "ourairports"
    },
    {
      "airportname": "wiarton airport",
      "city": "wiarton",
      "country": "canada",
      "airportcode": "yvv",
      "abv": "cyvv",
      "latitude": "44.7458",
      "longitude": "-81.107201",
      "altitude": "729",
      "timezone": "-5",
      "dst": "a",
      "timezonedb": "america/toronto",
      "type": "airport",
      "source": "ourairports"
    },
    {
      "airportname": "petawawa airport",
      "city": "petawawa",
      "country": "canada",
      "airportcode": "ywa",
      "abv": "cywa",
      "latitude": "45.95220184326172",
      "longitude": "-77.31919860839844",
      "altitude": "427",
      "timezone": "-5",
      "dst": "a",
      "timezonedb": "america/toronto",
      "type": "airport",
      "source": "ourairports"
    },
    {
      "airportname": "winnipeg / james armstrong richardson international airport",
      "city": "winnipeg",
      "country": "canada",
      "airportcode": "ywg",
      "abv": "cywg",
      "latitude": "49.909999847399995",
      "longitude": "-97.2398986816",
      "altitude": "783",
      "timezone": "-6",
      "dst": "a",
      "timezonedb": "america/winnipeg",
      "type": "airport",
      "source": "ourairports"
    },
    {
      "airportname": "wabush airport",
      "city": "wabush",
      "country": "canada",
      "airportcode": "ywk",
      "abv": "cywk",
      "latitude": "52.92190170288086",
      "longitude": "-66.8644027709961",
      "altitude": "1808",
      "timezone": "-4",
      "dst": "a",
      "timezonedb": "america/halifax",
      "type": "airport",
      "source": "ourairports"
    },
    {
      "airportname": "williams lake airport",
      "city": "williams lake",
      "country": "canada",
      "airportcode": "ywl",
      "abv": "cywl",
      "latitude": "52.1831016541",
      "longitude": "-122.054000854",
      "altitude": "3085",
      "timezone": "-8",
      "dst": "a",
      "timezonedb": "america/vancouver",
      "type": "airport",
      "source": "ourairports"
    },
    {
      "airportname": "wrigley airport",
      "city": "wrigley",
      "country": "canada",
      "airportcode": "ywy",
      "abv": "cywy",
      "latitude": "63.20940017700195",
      "longitude": "-123.43699645996094",
      "altitude": "489",
      "timezone": "-7",
      "dst": "a",
      "timezonedb": "america/edmonton",
      "type": "airport",
      "source": "ourairports"
    },
    {
      "airportname": "cranbrook/canadian rockies international airport",
      "city": "cranbrook",
      "country": "canada",
      "airportcode": "yxc",
      "abv": "cyxc",
      "latitude": "49.610801696777",
      "longitude": "-115.78199768066",
      "altitude": "3082",
      "timezone": "-7",
      "dst": "a",
      "timezonedb": "america/edmonton",
      "type": "airport",
      "source": "ourairports"
    },
    {
      "airportname": "edmonton city centre (blatchford field) airport",
      "city": "edmonton",
      "country": "canada",
      "airportcode": "yxd",
      "abv": "cyxd",
      "latitude": "53.5724983215",
      "longitude": "-113.521003723",
      "altitude": "2202",
      "timezone": "-7",
      "dst": "a",
      "timezonedb": "america/edmonton",
      "type": "airport",
      "source": "ourairports"
    },
    {
      "airportname": "saskatoon john g. diefenbaker international airport",
      "city": "saskatoon",
      "country": "canada",
      "airportcode": "yxe",
      "abv": "cyxe",
      "latitude": "52.170799255371094",
      "longitude": "-106.69999694824219",
      "altitude": "1653",
      "timezone": "-6",
      "dst": "n",
      "timezonedb": "america/regina",
      "type": "airport",
      "source": "ourairports"
    },
    {
      "airportname": "medicine hat airport",
      "city": "medicine hat",
      "country": "canada",
      "airportcode": "yxh",
      "abv": "cyxh",
      "latitude": "50.01890182495117",
      "longitude": "-110.72100067138672",
      "altitude": "2352",
      "timezone": "-7",
      "dst": "a",
      "timezonedb": "america/edmonton",
      "type": "airport",
      "source": "ourairports"
    },
    {
      "airportname": "fort st john airport",
      "city": "fort saint john",
      "country": "canada",
      "airportcode": "yxj",
      "abv": "cyxj",
      "latitude": "56.23809814453125",
      "longitude": "-120.73999786376953",
      "altitude": "2280",
      "timezone": "-7",
      "dst": "a",
      "timezonedb": "america/dawson_creek",
      "type": "airport",
      "source": "ourairports"
    },
    {
      "airportname": "sioux lookout airport",
      "city": "sioux lookout",
      "country": "canada",
      "airportcode": "yxl",
      "abv": "cyxl",
      "latitude": "50.11389923095703",
      "longitude": "-91.9052963256836",
      "altitude": "1258",
      "timezone": "-6",
      "dst": "a",
      "timezonedb": "america/winnipeg",
      "type": "airport",
      "source": "ourairports"
    },
    {
      "airportname": "pangnirtung airport",
      "city": "pangnirtung",
      "country": "canada",
      "airportcode": "yxp",
      "abv": "cyxp",
      "latitude": "66.1449966431",
      "longitude": "-65.71360015869999",
      "altitude": "75",
      "timezone": "-5",
      "dst": "a",
      "timezonedb": "america/toronto",
      "type": "airport",
      "source": "ourairports"
    },
    {
      "airportname": "earlton (timiskaming regional) airport",
      "city": "earlton",
      "country": "canada",
      "airportcode": "yxr",
      "abv": "cyxr",
      "latitude": "47.697400654599996",
      "longitude": "-79.8473453522",
      "altitude": "800",
      "timezone": "-5",
      "dst": "a",
      "timezonedb": "america/toronto",
      "type": "airport",
      "source": "ourairports"
    },
    {
      "airportname": "prince george airport",
      "city": "prince george",
      "country": "canada",
      "airportcode": "yxs",
      "abv": "cyxs",
      "latitude": "53.8894004822",
      "longitude": "-122.679000854",
      "altitude": "2267",
      "timezone": "-8",
      "dst": "a",
      "timezonedb": "america/vancouver",
      "type": "airport",
      "source": "ourairports"
    },
    {
      "airportname": "northwest regional airport terrace-kitimat",
      "city": "terrace",
      "country": "canada",
      "airportcode": "yxt",
      "abv": "cyxt",
      "latitude": "54.468498",
      "longitude": "-128.576009",
      "altitude": "713",
      "timezone": "-8",
      "dst": "a",
      "timezonedb": "america/vancouver",
      "type": "airport",
      "source": "ourairports"
    },
    {
      "airportname": "london airport",
      "city": "london",
      "country": "canada",
      "airportcode": "yxu",
      "abv": "cyxu",
      "latitude": "43.035599",
      "longitude": "-81.1539",
      "altitude": "912",
      "timezone": "-5",
      "dst": "a",
      "timezonedb": "america/toronto",
      "type": "airport",
      "source": "ourairports"
    },
    {
      "airportname": "abbotsford airport",
      "city": "abbotsford",
      "country": "canada",
      "airportcode": "yxx",
      "abv": "cyxx",
      "latitude": "49.025299072265625",
      "longitude": "-122.36100006103516",
      "altitude": "195",
      "timezone": "-8",
      "dst": "a",
      "timezonedb": "america/vancouver",
      "type": "airport",
      "source": "ourairports"
    },
    {
      "airportname": "whitehorse / erik nielsen international airport",
      "city": "whitehorse",
      "country": "canada",
      "airportcode": "yxy",
      "abv": "cyxy",
      "latitude": "60.7095985413",
      "longitude": "-135.067001343",
      "altitude": "2317",
      "timezone": "-8",
      "dst": "a",
      "timezonedb": "america/vancouver",
      "type": "airport",
      "source": "ourairports"
    },
    {
      "airportname": "north bay airport",
      "city": "north bay",
      "country": "canada",
      "airportcode": "yyb",
      "abv": "cyyb",
      "latitude": "46.36360168457031",
      "longitude": "-79.42279815673828",
      "altitude": "1215",
      "timezone": "-5",
      "dst": "a",
      "timezonedb": "america/toronto",
      "type": "airport",
      "source": "ourairports"
    },
    {
      "airportname": "calgary international airport",
      "city": "calgary",
      "country": "canada",
      "airportcode": "yyc",
      "abv": "cyyc",
      "latitude": "51.113899231",
      "longitude": "-114.019996643",
      "altitude": "3557",
      "timezone": "-7",
      "dst": "a",
      "timezonedb": "america/edmonton",
      "type": "airport",
      "source": "ourairports"
    },
    {
      "airportname": "smithers airport",
      "city": "smithers",
      "country": "canada",
      "airportcode": "yyd",
      "abv": "cyyd",
      "latitude": "54.82469940185547",
      "longitude": "-127.18299865722656",
      "altitude": "1712",
      "timezone": "-8",
      "dst": "a",
      "timezonedb": "america/vancouver",
      "type": "airport",
      "source": "ourairports"
    },
    {
      "airportname": "fort nelson airport",
      "city": "fort nelson",
      "country": "canada",
      "airportcode": "yye",
      "abv": "cyye",
      "latitude": "58.8363990784",
      "longitude": "-122.597000122",
      "altitude": "1253",
      "timezone": "-8",
      "dst": "a",
      "timezonedb": "america/vancouver",
      "type": "airport",
      "source": "ourairports"
    },
    {
      "airportname": "penticton airport",
      "city": "penticton",
      "country": "canada",
      "airportcode": "yyf",
      "abv": "cyyf",
      "latitude": "49.46310043334961",
      "longitude": "-119.60199737548828",
      "altitude": "1129",
      "timezone": "-8",
      "dst": "a",
      "timezonedb": "america/vancouver",
      "type": "airport",
      "source": "ourairports"
    },
    {
      "airportname": "charlottetown airport",
      "city": "charlottetown",
      "country": "canada",
      "airportcode": "yyg",
      "abv": "cyyg",
      "latitude": "46.290000915527344",
      "longitude": "-63.12110137939453",
      "altitude": "160",
      "timezone": "-4",
      "dst": "a",
      "timezonedb": "america/halifax",
      "type": "airport",
      "source": "ourairports"
    },
    {
      "airportname": "taloyoak airport",
      "city": "spence bay",
      "country": "canada",
      "airportcode": "yyh",
      "abv": "cyyh",
      "latitude": "69.5466995239",
      "longitude": "-93.5766983032",
      "altitude": "92",
      "timezone": "-7",
      "dst": "a",
      "timezonedb": "america/edmonton",
      "type": "airport",
      "source": "ourairports"
    },
    {
      "airportname": "victoria international airport",
      "city": "victoria",
      "country": "canada",
      "airportcode": "yyj",
      "abv": "cyyj",
      "latitude": "48.646900177",
      "longitude": "-123.426002502",
      "altitude": "63",
      "timezone": "-8",
      "dst": "a",
      "timezonedb": "america/vancouver",
      "type": "airport",
      "source": "ourairports"
    },
    {
      "airportname": "lynn lake airport",
      "city": "lynn lake",
      "country": "canada",
      "airportcode": "yyl",
      "abv": "cyyl",
      "latitude": "56.86389923095703",
      "longitude": "-101.07599639892578",
      "altitude": "1170",
      "timezone": "-6",
      "dst": "a",
      "timezonedb": "america/winnipeg",
      "type": "airport",
      "source": "ourairports"
    },
    {
      "airportname": "swift current airport",
      "city": "swift current",
      "country": "canada",
      "airportcode": "yyn",
      "abv": "cyyn",
      "latitude": "50.291900634799994",
      "longitude": "-107.691001892",
      "altitude": "2680",
      "timezone": "-6",
      "dst": "n",
      "timezonedb": "america/regina",
      "type": "airport",
      "source": "ourairports"
    },
    {
      "airportname": "churchill airport",
      "city": "churchill",
      "country": "canada",
      "airportcode": "yyq",
      "abv": "cyyq",
      "latitude": "58.739200592041016",
      "longitude": "-94.06500244140625",
      "altitude": "94",
      "timezone": "-6",
      "dst": "a",
      "timezonedb": "america/winnipeg",
      "type": "airport",
      "source": "ourairports"
    },
    {
      "airportname": "goose bay airport",
      "city": "goose bay",
      "country": "canada",
      "airportcode": "yyr",
      "abv": "cyyr",
      "latitude": "53.3191986084",
      "longitude": "-60.4258003235",
      "altitude": "160",
      "timezone": "-4",
      "dst": "a",
      "timezonedb": "america/halifax",
      "type": "airport",
      "source": "ourairports"
    },
    {
      "airportname": "st. john's international airport",
      "city": "st. john's",
      "country": "canada",
      "airportcode": "yyt",
      "abv": "cyyt",
      "latitude": "47.618598938",
      "longitude": "-52.7518997192",
      "altitude": "461",
      "timezone": "-3.5",
      "dst": "a",
      "timezonedb": "america/st_johns",
      "type": "airport",
      "source": "ourairports"
    },
    {
      "airportname": "kapuskasing airport",
      "city": "kapuskasing",
      "country": "canada",
      "airportcode": "yyu",
      "abv": "cyyu",
      "latitude": "49.41389846801758",
      "longitude": "-82.46749877929688",
      "altitude": "743",
      "timezone": "-5",
      "dst": "a",
      "timezonedb": "america/toronto",
      "type": "airport",
      "source": "ourairports"
    },
    {
      "airportname": "armstrong airport",
      "city": "armstrong",
      "country": "canada",
      "airportcode": "yyw",
      "abv": "cyyw",
      "latitude": "50.29029846191406",
      "longitude": "-88.90969848632812",
      "altitude": "1058",
      "timezone": "-5",
      "dst": "a",
      "timezonedb": "america/toronto",
      "type": "airport",
      "source": "ourairports"
    },
    {
      "airportname": "mont joli airport",
      "city": "mont joli",
      "country": "canada",
      "airportcode": "yyy",
      "abv": "cyyy",
      "latitude": "48.60860061645508",
      "longitude": "-68.20809936523438",
      "altitude": "172",
      "timezone": "-5",
      "dst": "a",
      "timezonedb": "america/toronto",
      "type": "airport",
      "source": "ourairports"
    },
    {
      "airportname": "lester b. pearson international airport",
      "city": "toronto",
      "country": "canada",
      "airportcode": "yyz",
      "abv": "cyyz",
      "latitude": "43.6772003174",
      "longitude": "-79.63059997559999",
      "altitude": "569",
      "timezone": "-5",
      "dst": "a",
      "timezonedb": "america/toronto",
      "type": "airport",
      "source": "ourairports"
    },
    {
      "airportname": "downsview airport",
      "city": "toronto",
      "country": "canada",
      "airportcode": "yzd",
      "abv": "cyzd",
      "latitude": "43.74250030517578",
      "longitude": "-79.4655990600586",
      "altitude": "652",
      "timezone": "-5",
      "dst": "a",
      "timezonedb": "america/toronto",
      "type": "airport",
      "source": "ourairports"
    },
    {
      "airportname": "gore bay manitoulin airport",
      "city": "gore bay",
      "country": "canada",
      "airportcode": "yze",
      "abv": "cyze",
      "latitude": "45.88529968261719",
      "longitude": "-82.56780242919922",
      "altitude": "635",
      "timezone": "-5",
      "dst": "a",
      "timezonedb": "america/toronto",
      "type": "airport",
      "source": "ourairports"
    },
    {
      "airportname": "yellowknife airport",
      "city": "yellowknife",
      "country": "canada",
      "airportcode": "yzf",
      "abv": "cyzf",
      "latitude": "62.462799072265625",
      "longitude": "-114.44000244140625",
      "altitude": "675",
      "timezone": "-7",
      "dst": "a",
      "timezonedb": "america/edmonton",
      "type": "airport",
      "source": "ourairports"
    },
    {
      "airportname": "slave lake airport",
      "city": "slave lake",
      "country": "canada",
      "airportcode": "yzh",
      "abv": "cyzh",
      "latitude": "55.2930984497",
      "longitude": "-114.777000427",
      "altitude": "1912",
      "timezone": "-7",
      "dst": "a",
      "timezonedb": "america/edmonton",
      "type": "airport",
      "source": "ourairports"
    },
    {
      "airportname": "sandspit airport",
      "city": "sandspit",
      "country": "canada",
      "airportcode": "yzp",
      "abv": "cyzp",
      "latitude": "53.25429916379999",
      "longitude": "-131.813995361",
      "altitude": "21",
      "timezone": "-8",
      "dst": "a",
      "timezonedb": "america/vancouver",
      "type": "airport",
      "source": "ourairports"
    },
    {
      "airportname": "chris hadfield airport",
      "city": "sarnia",
      "country": "canada",
      "airportcode": "yzr",
      "abv": "cyzr",
      "latitude": "42.9994010925293",
      "longitude": "-82.30889892578125",
      "altitude": "594",
      "timezone": "-5",
      "dst": "a",
      "timezonedb": "america/toronto",
      "type": "airport",
      "source": "ourairports"
    },
    {
      "airportname": "port hardy airport",
      "city": "port hardy",
      "country": "canada",
      "airportcode": "yzt",
      "abv": "cyzt",
      "latitude": "50.680599212646484",
      "longitude": "-127.36699676513672",
      "altitude": "71",
      "timezone": "-8",
      "dst": "a",
      "timezonedb": "america/vancouver",
      "type": "airport",
      "source": "ourairports"
    },
    {
      "airportname": "whitecourt airport",
      "city": "whitecourt",
      "country": "canada",
      "airportcode": "yzu",
      "abv": "cyzu",
      "latitude": "54.14390182495117",
      "longitude": "-115.78700256347656",
      "altitude": "2567",
      "timezone": "-7",
      "dst": "a",
      "timezonedb": "america/edmonton",
      "type": "airport",
      "source": "ourairports"
    },
    {
      "airportname": "sept-îles airport",
      "city": "sept-iles",
      "country": "canada",
      "airportcode": "yzv",
      "abv": "cyzv",
      "latitude": "50.22330093383789",
      "longitude": "-66.2656021118164",
      "altitude": "180",
      "timezone": "-5",
      "dst": "a",
      "timezonedb": "america/toronto",
      "type": "airport",
      "source": "ourairports"
    },
    {
      "airportname": "teslin airport",
      "city": "teslin",
      "country": "canada",
      "airportcode": "yzw",
      "abv": "cyzw",
      "latitude": "60.17279815673828",
      "longitude": "-132.7429962158203",
      "altitude": "2313",
      "timezone": "-8",
      "dst": "a",
      "timezonedb": "america/vancouver",
      "type": "airport",
      "source": "ourairports"
    },
    {
      "airportname": "cfb greenwood",
      "city": "greenwood",
      "country": "canada",
      "airportcode": "yzx",
      "abv": "cyzx",
      "latitude": "44.98440170288086",
      "longitude": "-64.91690063476562",
      "altitude": "92",
      "timezone": "-4",
      "dst": "a",
      "timezonedb": "america/halifax",
      "type": "airport",
      "source": "ourairports"
    },
    {
      "airportname": "faro airport",
      "city": "faro",
      "country": "canada",
      "airportcode": "zfa",
      "abv": "czfa",
      "latitude": "62.20750045776367",
      "longitude": "-133.37600708007812",
      "altitude": "2351",
      "timezone": "-8",
      "dst": "a",
      "timezonedb": "america/vancouver",
      "type": "airport",
      "source": "ourairports"
    },
    {
      "airportname": "fort mcpherson airport",
      "city": "fort mcpherson",
      "country": "canada",
      "airportcode": "zfm",
      "abv": "czfm",
      "latitude": "67.40750122070312",
      "longitude": "-134.86099243164062",
      "altitude": "116",
      "timezone": "-7",
      "dst": "a",
      "timezonedb": "america/edmonton",
      "type": "airport",
      "source": "ourairports"
    },
    {
      "airportname": "blida airport",
      "city": "blida",
      "country": "algeria",
      "airportcode": null,
      "abv": "daab",
      "latitude": "36.50360107421875",
      "longitude": "2.8141698837280273",
      "altitude": "535",
      "timezone": "1",
      "dst": "n",
      "timezonedb": "africa/algiers",
      "type": "airport",
      "source": "ourairports"
    },
    {
      "airportname": "bou saada airport",
      "city": "bou saada",
      "country": "algeria",
      "airportcode": null,
      "abv": "daad",
      "latitude": "35.33250045776367",
      "longitude": "4.206389904022217",
      "altitude": "1506",
      "timezone": "1",
      "dst": "n",
      "timezonedb": "africa/algiers",
      "type": "airport",
      "source": "ourairports"
    },
    {
      "airportname": "soummam airport",
      "city": "bejaja",
      "country": "algeria",
      "airportcode": "bja",
      "abv": "daae",
      "latitude": "36.7120018005",
      "longitude": "5.0699200630200005",
      "altitude": "20",
      "timezone": "1",
      "dst": "n",
      "timezonedb": "africa/algiers",
      "type": "airport",
      "source": "ourairports"
    },
    {
      "airportname": "houari boumediene airport",
      "city": "algier",
      "country": "algeria",
      "airportcode": "alg",
      "abv": "daag",
      "latitude": "36.691001892089844",
      "longitude": "3.215409994125366",
      "altitude": "82",
      "timezone": "1",
      "dst": "n",
      "timezonedb": "africa/algiers",
      "type": "airport",
      "source": "ourairports"
    },
    {
      "airportname": "djanet inedbirene airport",
      "city": "djanet",
      "country": "algeria",
      "airportcode": "djg",
      "abv": "daaj",
      "latitude": "24.292800903299998",
      "longitude": "9.45244026184",
      "altitude": "3176",
      "timezone": "1",
      "dst": "n",
      "timezonedb": "africa/algiers",
      "type": "airport",
      "source": "ourairports"
    },
    {
      "airportname": "boufarik airport",
      "city": "boufarik",
      "country": "algeria",
      "airportcode": "qfd",
      "abv": "daak",
      "latitude": "36.545799",
      "longitude": "2.87611",
      "altitude": "335",
      "timezone": "1",
      "dst": "n",
      "timezonedb": "africa/algiers",
      "type": "airport",
      "source": "ourairports"
    },
    {
      "airportname": "reggane airport",
      "city": "reggan",
      "country": "algeria",
      "airportcode": null,
      "abv": "daan",
      "latitude": "26.710100173950195",
      "longitude": "0.2856470048427582",
      "altitude": "955",
      "timezone": "1",
      "dst": "n",
      "timezonedb": "africa/algiers",
      "type": "airport",
      "source": "ourairports"
    },
    {
      "airportname": "illizi takhamalt airport",
      "city": "illizi",
      "country": "algeria",
      "airportcode": "vvz",
      "abv": "daap",
      "latitude": "26.7234992981",
      "longitude": "8.62265014648",
      "altitude": "1778",
      "timezone": "1",
      "dst": "n",
      "timezonedb": "africa/algiers",
      "type": "airport",
      "source": "ourairports"
    },
    {
      "airportname": "ain oussera airport",
      "city": "ain oussera",
      "country": "algeria",
      "airportcode": null,
      "abv": "daaq",
      "latitude": "35.52539825439453",
      "longitude": "2.8787100315093994",
      "altitude": "2132",
      "timezone": "1",
      "dst": "n",
      "timezonedb": "africa/algiers",
      "type": "airport",
      "source": "ourairports"
    },
    {
      "airportname": "aguenar – hadj bey akhamok airport",
      "city": "tamanrasset",
      "country": "algeria",
      "airportcode": "tmr",
      "abv": "daat",
      "latitude": "22.8115005493",
      "longitude": "5.45107984543",
      "altitude": "4518",
      "timezone": "1",
      "dst": "n",
      "timezonedb": "africa/algiers",
      "type": "airport",
      "source": "ourairports"
    },
    {
      "airportname": "jijel ferhat abbas airport",
      "city": "jijel",
      "country": "algeria",
      "airportcode": "gjl",
      "abv": "daav",
      "latitude": "36.7951011658",
      "longitude": "5.87361001968",
      "altitude": "36",
      "timezone": "1",
      "dst": "n",
      "timezonedb": "africa/algiers",
      "type": "airport",
      "source": "ourairports"
    },
    {
      "airportname": "mecheria airport",
      "city": "mecheria",
      "country": "algeria",
      "airportcode": null,
      "abv": "daay",
      "latitude": "33.535900116",
      "longitude": "-0.242353007197",
      "altitude": "3855",
      "timezone": "1",
      "dst": "n",
      "timezonedb": "africa/algiers",
      "type": "airport",
      "source": "ourairports"
    },
    {
      "airportname": "relizane airport",
      "city": "relizane",
      "country": "algeria",
      "airportcode": null,
      "abv": "daaz",
      "latitude": "35.752201080322266",
      "longitude": "0.6262720227241516",
      "altitude": "282",
      "timezone": "1",
      "dst": "n",
      "timezonedb": "africa/algiers",
      "type": "airport",
      "source": "ourairports"
    },
    {
      "airportname": "annaba airport",
      "city": "annaba",
      "country": "algeria",
      "airportcode": "aae",
      "abv": "dabb",
      "latitude": "36.822200775146484",
      "longitude": "7.809169769287109",
      "altitude": "16",
      "timezone": "1",
      "dst": "n",
      "timezonedb": "africa/algiers",
      "type": "airport",
      "source": "ourairports"
    },
    {
      "airportname": "mohamed boudiaf international airport",
      "city": "constantine",
      "country": "algeria",
      "airportcode": "czl",
      "abv": "dabc",
      "latitude": "36.2760009765625",
      "longitude": "6.620389938354492",
      "altitude": "2265",
      "timezone": "1",
      "dst": "n",
      "timezonedb": "africa/algiers",
      "type": "airport",
      "source": "ourairports"
    },
    {
      "airportname": "cheikh larbi tébessi airport",
      "city": "tebessa",
      "country": "algeria",
      "airportcode": "tee",
      "abv": "dabs",
      "latitude": "35.4315986633",
      "longitude": "8.12071990967",
      "altitude": "2661",
      "timezone": "1",
      "dst": "n",
      "timezonedb": "africa/algiers",
      "type": "airport",
      "source": "ourairports"
    },
    {
      "airportname": "hassi r'mel airport",
      "city": "tilrempt",
      "country": "algeria",
      "airportcode": "hrm",
      "abv": "dafh",
      "latitude": "32.93040084838867",
      "longitude": "3.311539888381958",
      "altitude": "2540",
      "timezone": "1",
      "dst": "n",
      "timezonedb": "africa/algiers",
      "type": "airport",
      "source": "ourairports"
    },
    {
      "airportname": "bou chekif airport",
      "city": "tiaret",
      "country": "algeria",
      "airportcode": "tid",
      "abv": "daob",
      "latitude": "35.3410987854",
      "longitude": "1.46315002441",
      "altitude": "3245",
      "timezone": "1",
      "dst": "n",
      "timezonedb": "africa/algiers",
      "type": "airport",
      "source": "ourairports"
    },
    {
      "airportname": "bou sfer airport",
      "city": "bou sfer",
      "country": "algeria",
      "airportcode": null,
      "abv": "daoe",
      "latitude": "35.73540115356445",
      "longitude": "-0.8053889870643616",
      "altitude": "187",
      "timezone": "1",
      "dst": "n",
      "timezonedb": "africa/algiers",
      "type": "airport",
      "source": "ourairports"
    },
    {
      "airportname": "tindouf airport",
      "city": "tindouf",
      "country": "algeria",
      "airportcode": "tin",
      "abv": "daof",
      "latitude": "27.7003993988",
      "longitude": "-8.167099952700001",
      "altitude": "1453",
      "timezone": "1",
      "dst": "n",
      "timezonedb": "africa/algiers",
      "type": "airport",
      "source": "ourairports"
    },
    {
      "airportname": "ech cheliff airport",
      "city": "ech-cheliff",
      "country": "algeria",
      "airportcode": "qas",
      "abv": "daoi",
      "latitude": "36.2126998901",
      "longitude": "1.33176994324",
      "altitude": "463",
      "timezone": "1",
      "dst": "n",
      "timezonedb": "africa/algiers",
      "type": "airport",
      "source": "ourairports"
    },
    {
      "airportname": "tafaraoui airport",
      "city": "oran",
      "country": "algeria",
      "airportcode": "taf",
      "abv": "daol",
      "latitude": "35.54240036010742",
      "longitude": "-0.5322780013084412",
      "altitude": "367",
      "timezone": "1",
      "dst": "n",
      "timezonedb": "africa/algiers",
      "type": "airport",
      "source": "ourairports"
    },
    {
      "airportname": "zenata – messali el hadj airport",
      "city": "tlemcen",
      "country": "algeria",
      "airportcode": "tlm",
      "abv": "daon",
      "latitude": "35.0167007446",
      "longitude": "-1.45000004768",
      "altitude": "814",
      "timezone": "1",
      "dst": "n",
      "timezonedb": "africa/algiers",
      "type": "airport",
      "source": "ourairports"
    },
    {
      "airportname": "es senia airport",
      "city": "oran",
      "country": "algeria",
      "airportcode": "orn",
      "abv": "daoo",
      "latitude": "35.6239013672",
      "longitude": "-0.6211829781529999",
      "altitude": "295",
      "timezone": "1",
      "dst": "n",
      "timezonedb": "africa/algiers",
      "type": "airport",
      "source": "ourairports"
    },
    {
      "airportname": "sidi bel abbes airport",
      "city": "sidi bel abbes",
      "country": "algeria",
      "airportcode": null,
      "abv": "daos",
      "latitude": "35.1717987061",
      "longitude": "-0.593275010586",
      "altitude": "1614",
      "timezone": "1",
      "dst": "n",
      "timezonedb": "africa/algiers",
      "type": "airport",
      "source": "ourairports"
    },
    {
      "airportname": "ghriss airport",
      "city": "ghriss",
      "country": "algeria",
      "airportcode": "muw",
      "abv": "daov",
      "latitude": "35.207698822021484",
      "longitude": "0.14714199304580688",
      "altitude": "1686",
      "timezone": "1",
      "dst": "n",
      "timezonedb": "africa/algiers",
      "type": "airport",
      "source": "ourairports"
    },
    {
      "airportname": "touat cheikh sidi mohamed belkebir airport",
      "city": "adrar",
      "country": "algeria",
      "airportcode": "azr",
      "abv": "daua",
      "latitude": "27.837600708007812",
      "longitude": "-0.18641400337219238",
      "altitude": "919",
      "timezone": "1",
      "dst": "n",
      "timezonedb": "africa/algiers",
      "type": "airport",
      "source": "ourairports"
    },
    {
      "airportname": "biskra airport",
      "city": "biskra",
      "country": "algeria",
      "airportcode": "bsk",
      "abv": "daub",
      "latitude": "34.793300628699996",
      "longitude": "5.73823022842",
      "altitude": "289",
      "timezone": "1",
      "dst": "n",
      "timezonedb": "africa/algiers",
      "type": "airport",
      "source": "ourairports"
    },
    {
      "airportname": "el golea airport",
      "city": "el golea",
      "country": "algeria",
      "airportcode": "elg",
      "abv": "daue",
      "latitude": "30.571300506591797",
      "longitude": "2.8595900535583496",
      "altitude": "1306",
      "timezone": "1",
      "dst": "n",
      "timezonedb": "africa/algiers",
      "type": "airport",
      "source": "ourairports"
    },
    {
      "airportname": "noumérat - moufdi zakaria airport",
      "city": "ghardaia",
      "country": "algeria",
      "airportcode": "gha",
      "abv": "daug",
      "latitude": "32.38410186767578",
      "longitude": "3.794110059738159",
      "altitude": "1512",
      "timezone": "1",
      "dst": "n",
      "timezonedb": "africa/algiers",
      "type": "airport",
      "source": "ourairports"
    },
    {
      "airportname": "oued irara airport",
      "city": "hassi messaoud",
      "country": "algeria",
      "airportcode": "hme",
      "abv": "dauh",
      "latitude": "31.673000335699996",
      "longitude": "6.140439987180001",
      "altitude": "463",
      "timezone": "1",
      "dst": "n",
      "timezonedb": "africa/algiers",
      "type": "airport",
      "source": "ourairports"
    },
    {
      "airportname": "in salah airport",
      "city": "in salah",
      "country": "algeria",
      "airportcode": "inz",
      "abv": "daui",
      "latitude": "27.250999450699997",
      "longitude": "2.51202011108",
      "altitude": "896",
      "timezone": "1",
      "dst": "n",
      "timezonedb": "africa/algiers",
      "type": "airport",
      "source": "ourairports"
    },
    {
      "airportname": "touggourt sidi madhi airport",
      "city": "touggourt",
      "country": "algeria",
      "airportcode": "tgr",
      "abv": "dauk",
      "latitude": "33.06779861450195",
      "longitude": "6.088669776916504",
      "altitude": "279",
      "timezone": "1",
      "dst": "n",
      "timezonedb": "africa/algiers",
      "type": "airport",
      "source": "ourairports"
    },
    {
      "airportname": "laghouat airport",
      "city": "laghouat",
      "country": "algeria",
      "airportcode": "loo",
      "abv": "daul",
      "latitude": "33.764400482199996",
      "longitude": "2.92833995819",
      "altitude": "2510",
      "timezone": "1",
      "dst": "n",
      "timezonedb": "africa/algiers",
      "type": "airport",
      "source": "ourairports"
    },
    {
      "airportname": "timimoun airport",
      "city": "timimoun",
      "country": "algeria",
      "airportcode": "tmx",
      "abv": "daut",
      "latitude": "29.2371006012",
      "longitude": "0.276033014059",
      "altitude": "1027",
      "timezone": "1",
      "dst": "n",
      "timezonedb": "africa/algiers",
      "type": "airport",
      "source": "ourairports"
    },
    {
      "airportname": "ain el beida airport",
      "city": "ouargla",
      "country": "algeria",
      "airportcode": "ogx",
      "abv": "dauu",
      "latitude": "31.917200088500977",
      "longitude": "5.412779808044434",
      "altitude": "492",
      "timezone": "1",
      "dst": "n",
      "timezonedb": "africa/algiers",
      "type": "airport",
      "source": "ourairports"
    },
    {
      "airportname": "in aménas airport",
      "city": "zarzaitine",
      "country": "algeria",
      "airportcode": "iam",
      "abv": "dauz",
      "latitude": "28.0515003204",
      "longitude": "9.64291000366",
      "altitude": "1847",
      "timezone": "1",
      "dst": "n",
      "timezonedb": "africa/algiers",
      "type": "airport",
      "source": "ourairports"
    },
    {
      "airportname": "cadjehoun airport",
      "city": "cotonou",
      "country": "benin",
      "airportcode": "coo",
      "abv": "dbbb",
      "latitude": "6.357230186462402",
      "longitude": "2.384350061416626",
      "altitude": "19",
      "timezone": "1",
      "dst": "n",
      "timezonedb": "africa/porto-novo",
      "type": "airport",
      "source": "ourairports"
    },
    {
      "airportname": "ouagadougou airport",
      "city": "ouagadougou",
      "country": "burkina faso",
      "airportcode": "oua",
      "abv": "dffd",
      "latitude": "12.35319995880127",
      "longitude": "-1.5124200582504272",
      "altitude": "1037",
      "timezone": "0",
      "dst": "n",
      "timezonedb": "africa/ouagadougou",
      "type": "airport",
      "source": "ourairports"
    },
    {
      "airportname": "bobo dioulasso airport",
      "city": "bobo-dioulasso",
      "country": "burkina faso",
      "airportcode": "boy",
      "abv": "dfoo",
      "latitude": "11.160099983215332",
      "longitude": "-4.33096981048584",
      "altitude": "1511",
      "timezone": "0",
      "dst": "n",
      "timezonedb": "africa/ouagadougou",
      "type": "airport",
      "source": "ourairports"
    },
    {
      "airportname": "kotoka international airport",
      "city": "accra",
      "country": "ghana",
      "airportcode": "acc",
      "abv": "dgaa",
      "latitude": "5.605189800262451",
      "longitude": "-0.16678600013256073",
      "altitude": "205",
      "timezone": "0",
      "dst": "n",
      "timezonedb": "africa/accra",
      "type": "airport",
      "source": "ourairports"
    },
    {
      "airportname": "tamale airport",
      "city": "tamale",
      "country": "ghana",
      "airportcode": "tml",
      "abv": "dgle",
      "latitude": "9.55718994140625",
      "longitude": "-0.8632140159606934",
      "altitude": "553",
      "timezone": "0",
      "dst": "n",
      "timezonedb": "africa/accra",
      "type": "airport",
      "source": "ourairports"
    },
    {
      "airportname": "wa airport",
      "city": "wa",
      "country": "ghana",
      "airportcode": null,
      "abv": "dglw",
      "latitude": "10.0826997756958",
      "longitude": "-2.507689952850342",
      "altitude": "1060",
      "timezone": "0",
      "dst": "n",
      "timezonedb": "africa/accra",
      "type": "airport",
      "source": "ourairports"
    },
    {
      "airportname": "sunyani airport",
      "city": "sunyani",
      "country": "ghana",
      "airportcode": "nyi",
      "abv": "dgsn",
      "latitude": "7.361830234527588",
      "longitude": "-2.3287599086761475",
      "altitude": "1014",
      "timezone": "0",
      "dst": "n",
      "timezonedb": "africa/accra",
      "type": "airport",
      "source": "ourairports"
    },