{
  "airports": [
    {
      "id": "1",
      "airportname": "goroka airport",
      "city": "goroka",
      "country": "papua new guinea",
      "airportcode": "gka",
      "abv": "ayga",
      "latitude": "-6.081689834590001",
      "longitude": "145.391998291"
    },
    {
      "id": "2",
      "airportname": "madang airport",
      "city": "madang",
      "country": "papua new guinea",
      "airportcode": "mag",
      "abv": "aymd",
      "latitude": "-5.20707988739",
      "longitude": "145.789001465"
    },
    {
      "id": "3",
      "airportname": "mount hagen kagamuga airport",
      "city": "mount hagen",
      "country": "papua new guinea",
      "airportcode": "hgu",
      "abv": "aymh",
      "latitude": "-5.826789855957031",
      "longitude": "144.29600524902344"
    },
    {
      "id": "4",
      "airportname": "nadzab airport",
      "city": "nadzab",
      "country": "papua new guinea",
      "airportcode": "lae",
      "abv": "aynz",
      "latitude": "-6.569803",
      "longitude": "146.725977"
    },
    {
      "id": "5",
      "airportname": "port moresby jacksons international airport",
      "city": "port moresby",
      "country": "papua new guinea",
      "airportcode": "pom",
      "abv": "aypy",
      "latitude": "-9.443380355834961",
      "longitude": "147.22000122070312"
    },
    {
      "id": "6",
      "airportname": "wewak international airport",
      "city": "wewak",
      "country": "papua new guinea",
      "airportcode": "wwk",
      "abv": "aywk",
      "latitude": "-3.58383011818",
      "longitude": "143.669006348"
    },
    {
      "id": "7",
      "airportname": "narsarsuaq airport",
      "city": "narssarssuaq",
      "country": "greenland",
      "airportcode": "uak",
      "abv": "bgbw",
      "latitude": "61.1604995728",
      "longitude": "-45.4259986877"
    },
    {
      "id": "8",
      "airportname": "godthaab / nuuk airport",
      "city": "godthaab",
      "country": "greenland",
      "airportcode": "goh",
      "abv": "bggh",
      "latitude": "64.19090271",
      "longitude": "-51.6781005859"
    },
    {
      "id": "9",
      "airportname": "kangerlussuaq airport",
      "city": "sondrestrom",
      "country": "greenland",
      "airportcode": "sfj",
      "abv": "bgsf",
      "latitude": "67.0122218992",
      "longitude": "-50.7116031647"
    },
    {
      "id": "10",
      "airportname": "thule air base",
      "city": "thule",
      "country": "greenland",
      "airportcode": "thu",
      "abv": "bgtl",
      "latitude": "76.5311965942",
      "longitude": "-68.7032012939"
    },
    {
      "id": "11",
      "airportname": "akureyri airport",
      "city": "akureyri",
      "country": "iceland",
      "airportcode": "aey",
      "abv": "biar",
      "latitude": "65.66000366210938",
      "longitude": "-18.07270050048828"
    },
    {
      "id": "12",
      "airportname": "egilsstaðir airport",
      "city": "egilsstadir",
      "country": "iceland",
      "airportcode": "egs",
      "abv": "bieg",
      "latitude": "65.2833023071289",
      "longitude": "-14.401399612426758"
    },
    {
      "id": "13",
      "airportname": "hornafjörður airport",
      "city": "hofn",
      "country": "iceland",
      "airportcode": "hfn",
      "abv": "bihn",
      "latitude": "64.295601",
      "longitude": "-15.2272"
    },
    {
      "id": "14",
      "airportname": "húsavík airport",
      "city": "husavik",
      "country": "iceland",
      "airportcode": "hzk",
      "abv": "bihu",
      "latitude": "65.952301",
      "longitude": "-17.426001"
    },
    {
      "id": "15",
      "airportname": "ísafjörður airport",
      "city": "isafjordur",
      "country": "iceland",
      "airportcode": "ifj",
      "abv": "biis",
      "latitude": "66.05809783935547",
      "longitude": "-23.135299682617188"
    },
    {
      "id": "16",
      "airportname": "keflavik international airport",
      "city": "keflavik",
      "country": "iceland",
      "airportcode": "kef",
      "abv": "bikf",
      "latitude": "63.985000610352",
      "longitude": "-22.605600357056"
    },
    {
      "id": "17",
      "airportname": "patreksfjörður airport",
      "city": "patreksfjordur",
      "country": "iceland",
      "airportcode": "pfj",
      "abv": "bipa",
      "latitude": "65.555801",
      "longitude": "-23.965"
    },
    {
      "id": "18",
      "airportname": "reykjavik airport",
      "city": "reykjavik",
      "country": "iceland",
      "airportcode": "rkv",
      "abv": "birk",
      "latitude": "64.1299972534",
      "longitude": "-21.9405994415"
    },
    {
      "id": "19",
      "airportname": "siglufjörður airport",
      "city": "siglufjordur",
      "country": "iceland",
      "airportcode": "sij",
      "abv": "bisi",
      "latitude": "66.133301",
      "longitude": "-18.9167"
    },
    {
      "id": "20",
      "airportname": "vestmannaeyjar airport",
      "city": "vestmannaeyjar",
      "country": "iceland",
      "airportcode": "vey",
      "abv": "bivm",
      "latitude": "63.42430114746094",
      "longitude": "-20.278900146484375"
    },
    {
      "id": "21",
      "airportname": "sault ste marie airport",
      "city": "sault sainte marie",
      "country": "canada",
      "airportcode": "yam",
      "abv": "cyam",
      "latitude": "46.48500061035156",
      "longitude": "-84.5093994140625"
    },
    {
      "id": "22",
      "airportname": "winnipeg / st. andrews airport",
      "city": "winnipeg",
      "country": "canada",
      "airportcode": "yav",
      "abv": "cyav",
      "latitude": "50.0564002991",
      "longitude": "-97.03250122070001"
    },
    {
      "id": "23",
      "airportname": "halifax / cfb shearwater heliport",
      "city": "halifax",
      "country": "canada",
      "airportcode": "yaw",
      "abv": "cyaw",
      "latitude": "44.6397018433",
      "longitude": "-63.499401092499994"
    },
    {
      "id": "24",
      "airportname": "st. anthony airport",
      "city": "st. anthony",
      "country": "canada",
      "airportcode": "yay",
      "abv": "cyay",
      "latitude": "51.3918991089",
      "longitude": "-56.083099365200006"
    },
    {
      "id": "25",
      "airportname": "tofino / long beach airport",
      "city": "tofino",
      "country": "canada",
      "airportcode": "yaz",
      "abv": "cyaz",
      "latitude": "49.079833",
      "longitude": "-125.775583"
    },
    {
      "id": "26",
      "airportname": "kugaaruk airport",
      "city": "pelly bay",
      "country": "canada",
      "airportcode": "ybb",
      "abv": "cybb",
      "latitude": "68.534401",
      "longitude": "-89.808098"
    },
    {
      "id": "27",
      "airportname": "baie comeau airport",
      "city": "baie comeau",
      "country": "canada",
      "airportcode": "ybc",
      "abv": "cybc",
      "latitude": "49.13249969482422",
      "longitude": "-68.20439910888672"
    },
    {
      "id": "28",
      "airportname": "cfb bagotville",
      "city": "bagotville",
      "country": "canada",
      "airportcode": "ybg",
      "abv": "cybg",
      "latitude": "48.33060073852539",
      "longitude": "-70.99639892578125"
    },
    {
      "id": "29",
      "airportname": "baker lake airport",
      "city": "baker lake",
      "country": "canada",
      "airportcode": "ybk",
      "abv": "cybk",
      "latitude": "64.29889678960001",
      "longitude": "-96.077796936"
    },
    {
      "id": "30",
      "airportname": "campbell river airport",
      "city": "campbell river",
      "country": "canada",
      "airportcode": "ybl",
      "abv": "cybl",
      "latitude": "49.950801849365234",
      "longitude": "-125.27100372314453"
    },
    {
      "id": "31",
      "airportname": "brandon municipal airport",
      "city": "brandon",
      "country": "canada",
      "airportcode": "ybr",
      "abv": "cybr",
      "latitude": "49.91",
      "longitude": "-99.951897"
    },
    {
      "id": "32",
      "airportname": "cambridge bay airport",
      "city": "cambridge bay",
      "country": "canada",
      "airportcode": "ycb",
      "abv": "cycb",
      "latitude": "69.1081008911",
      "longitude": "-105.138000488"
    },
    {
      "id": "33",
      "airportname": "nanaimo airport",
      "city": "nanaimo",
      "country": "canada",
      "airportcode": "ycd",
      "abv": "cycd",
      "latitude": "49.054970224899996",
      "longitude": "-123.869862556"
    },
    {
      "id": "34",
      "airportname": "castlegar/west kootenay regional airport",
      "city": "castlegar",
      "country": "canada",
      "airportcode": "ycg",
      "abv": "cycg",
      "latitude": "49.2963981628",
      "longitude": "-117.632003784"
    },
    {
      "id": "35",
      "airportname": "miramichi airport",
      "city": "chatham",
      "country": "canada",
      "airportcode": "ych",
      "abv": "cych",
      "latitude": "47.007801",
      "longitude": "-65.449203"
    },
    {
      "id": "36",
      "airportname": "charlo airport",
      "city": "charlo",
      "country": "canada",
      "airportcode": "ycl",
      "abv": "cycl",
      "latitude": "47.990799",
      "longitude": "-66.330299"
    },
    {
      "id": "37",
      "airportname": "kugluktuk airport",
      "city": "coppermine",
      "country": "canada",
      "airportcode": "yco",
      "abv": "cyco",
      "latitude": "67.81670379639999",
      "longitude": "-115.143997192"
    },
    {
      "id": "38",
      "airportname": "coronation airport",
      "city": "coronation",
      "country": "canada",
      "airportcode": "yct",
      "abv": "cyct",
      "latitude": "52.0750007629",
      "longitude": "-111.444999695"
    },
    {
      "id": "39",
      "airportname": "chilliwack airport",
      "city": "chilliwack",
      "country": "canada",
      "airportcode": "ycw",
      "abv": "cycw",
      "latitude": "49.1528015137",
      "longitude": "-121.939002991"
    },
    {
      "id": "40",
      "airportname": "clyde river airport",
      "city": "clyde river",
      "country": "canada",
      "airportcode": "ycy",
      "abv": "cycy",
      "latitude": "70.4860992432",
      "longitude": "-68.5167007446"
    },
    {
      "id": "41",
      "airportname": "coral harbour airport",
      "city": "coral harbour",
      "country": "canada",
      "airportcode": "yzs",
      "abv": "cyzs",
      "latitude": "64.1932983398",
      "longitude": "-83.3593978882"
    },
    {
      "id": "42",
      "airportname": "dawson city airport",
      "city": "dawson",
      "country": "canada",
      "airportcode": "yda",
      "abv": "cyda",
      "latitude": "64.04309844970703",
      "longitude": "-139.1280059814453"
    },
    {
      "id": "43",
      "airportname": "burwash airport",
      "city": "burwash",
      "country": "canada",
      "airportcode": "ydb",
      "abv": "cydb",
      "latitude": "61.37110137939453",
      "longitude": "-139.04100036621094"
    },
    {
      "id": "44",
      "airportname": "princeton airport",
      "city": "princeton",
      "country": "canada",
      "airportcode": "ydc",
      "abv": "cydc",
      "latitude": "49.4681015015",
      "longitude": "-120.511001587"
    },
    {
      "id": "45",
      "airportname": "deer lake airport",
      "city": "deer lake",
      "country": "canada",
      "airportcode": "ydf",
      "abv": "cydf",
      "latitude": "49.21080017089844",
      "longitude": "-57.39139938354492"
    },
    {
      "id": "46",
      "airportname": "dease lake airport",
      "city": "dease lake",
      "country": "canada",
      "airportcode": "ydl",
      "abv": "cydl",
      "latitude": "58.4221992493",
      "longitude": "-130.031997681"
    },
    {
      "id": "47",
      "airportname": "dauphin barker airport",
      "city": "dauphin",
      "country": "canada",
      "airportcode": "ydn",
      "abv": "cydn",
      "latitude": "51.100799560546875",
      "longitude": "-100.052001953125"
    },
    {
      "id": "48",
      "airportname": "dawson creek airport",
      "city": "dawson creek",
      "country": "canada",
      "airportcode": "ydq",
      "abv": "cydq",
      "latitude": "55.7422981262207",
      "longitude": "-120.18299865722656"
    },
    {
      "id": "49",
      "airportname": "edmonton international airport",
      "city": "edmonton",
      "country": "canada",
      "airportcode": "yeg",
      "abv": "cyeg",
      "latitude": "53.309700012200004",
      "longitude": "-113.580001831"
    },
    {
      "id": "50",
      "airportname": "arviat airport",
      "city": "eskimo point",
      "country": "canada",
      "airportcode": "yek",
      "abv": "cyek",
      "latitude": "61.0942001343",
      "longitude": "-94.07080078119999"
    },
    {
      "id": "51",
      "airportname": "estevan airport",
      "city": "estevan",
      "country": "canada",
      "airportcode": "yen",
      "abv": "cyen",
      "latitude": "49.2103004456",
      "longitude": "-102.966003418"
    },
    {
      "id": "52",
      "airportname": "edson airport",
      "city": "edson",
      "country": "canada",
      "airportcode": "yet",
      "abv": "cyet",
      "latitude": "53.578899383499994",
      "longitude": "-116.464996338"
    },
    {
      "id": "53",
      "airportname": "eureka airport",
      "city": "eureka",
      "country": "canada",
      "airportcode": "yeu",
      "abv": "cyeu",
      "latitude": "79.9946975708",
      "longitude": "-85.814201355"
    },
    {
      "id": "54",
      "airportname": "inuvik mike zubko airport",
      "city": "inuvik",
      "country": "canada",
      "airportcode": "yev",
      "abv": "cyev",
      "latitude": "68.30419921880001",
      "longitude": "-133.483001709"
    },
    {
      "id": "55",
      "airportname": "iqaluit airport",
      "city": "iqaluit",
      "country": "canada",
      "airportcode": "yfb",
      "abv": "cyfb",
      "latitude": "63.756401062",
      "longitude": "-68.5558013916"
    },
    {
      "id": "56",
      "airportname": "fredericton airport",
      "city": "fredericton",
      "country": "canada",
      "airportcode": "yfc",
      "abv": "cyfc",
      "latitude": "45.868900299072266",
      "longitude": "-66.53720092773438"
    },
    {
      "id": "57",
      "airportname": "forestville airport",
      "city": "forestville",
      "country": "canada",
      "airportcode": "\\n",
      "abv": "cyfe",
      "latitude": "48.74610137939453",
      "longitude": "-69.09719848632812"
    },
    {
      "id": "58",
      "airportname": "flin flon airport",
      "city": "flin flon",
      "country": "canada",
      "airportcode": "yfo",
      "abv": "cyfo",
      "latitude": "54.6781005859375",
      "longitude": "-101.68199920654297"
    },
    {
      "id": "59",
      "airportname": "fort resolution airport",
      "city": "fort resolution",
      "country": "canada",
      "airportcode": "yfr",
      "abv": "cyfr",
      "latitude": "61.1808013916",
      "longitude": "-113.690002441"
    },
    {
      "id": "60",
      "airportname": "fort simpson airport",
      "city": "fort simpson",
      "country": "canada",
      "airportcode": "yfs",
      "abv": "cyfs",
      "latitude": "61.76020050048828",
      "longitude": "-121.23699951171875"
    },
    {
      "id": "61",
      "airportname": "kingston norman rogers airport",
      "city": "kingston",
      "country": "canada",
      "airportcode": "ygk",
      "abv": "cygk",
      "latitude": "44.22529983520508",
      "longitude": "-76.5969009399414"
    },
    {
      "id": "62",
      "airportname": "la grande rivière airport",
      "city": "la grande riviere",
      "country": "canada",
      "airportcode": "ygl",
      "abv": "cygl",
      "latitude": "53.625301361083984",
      "longitude": "-77.7042007446289"
    },
    {
      "id": "63",
      "airportname": "gaspé (michel-pouliot) airport",
      "city": "gaspe",
      "country": "canada",
      "airportcode": "ygp",
      "abv": "cygp",
      "latitude": "48.7752990723",
      "longitude": "-64.4785995483"
    },
    {
      "id": "64",
      "airportname": "geraldton greenstone regional airport",
      "city": "geraldton",
      "country": "canada",
      "airportcode": "ygq",
      "abv": "cygq",
      "latitude": "49.77830123901367",
      "longitude": "-86.93939971923828"
    },
    {
      "id": "65",
      "airportname": "îles-de-la-madeleine airport",
      "city": "iles de la madeleine",
      "country": "canada",
      "airportcode": "ygr",
      "abv": "cygr",
      "latitude": "47.42470169067383",
      "longitude": "-61.778099060058594"
    },
    {
      "id": "66",
      "airportname": "hudson bay airport",
      "city": "hudson bay",
      "country": "canada",
      "airportcode": "yhb",
      "abv": "cyhb",
      "latitude": "52.8166999817",
      "longitude": "-102.310997009"
    },
    {
      "id": "67",
      "airportname": "dryden regional airport",
      "city": "dryden",
      "country": "canada",
      "airportcode": "yhd",
      "abv": "cyhd",
      "latitude": "49.83169937133789",
      "longitude": "-92.74420166015625"
    },
    {
      "id": "68",
      "airportname": "ulukhaktok holman airport",
      "city": "holman island",
      "country": "canada",
      "airportcode": "yhi",
      "abv": "cyhi",
      "latitude": "70.76280212402344",
      "longitude": "-117.80599975585938"
    },
    {
      "id": "69",
      "airportname": "gjoa haven airport",
      "city": "gjoa haven",
      "country": "canada",
      "airportcode": "yhk",
      "abv": "cyhk",
      "latitude": "68.635597229",
      "longitude": "-95.84970092770001"
    },
    {
      "id": "70",
      "airportname": "john c. munro hamilton international airport",
      "city": "hamilton",
      "country": "canada",
      "airportcode": "yhm",
      "abv": "cyhm",
      "latitude": "43.173599243199995",
      "longitude": "-79.93499755859999"
    },
    {
      "id": "71",
      "airportname": "montréal / saint-hubert airport",
      "city": "montreal",
      "country": "canada",
      "airportcode": "yhu",
      "abv": "cyhu",
      "latitude": "45.5175018311",
      "longitude": "-73.4169006348"
    },
    {
      "id": "72",
      "airportname": "hay river / merlyn carter airport",
      "city": "hay river",
      "country": "canada",
      "airportcode": "yhy",
      "abv": "cyhy",
      "latitude": "60.8396987915",
      "longitude": "-115.782997131"
    },
    {
      "id": "73",
      "airportname": "halifax / stanfield international airport",
      "city": "halifax",
      "country": "canada",
      "airportcode": "yhz",
      "abv": "cyhz",
      "latitude": "44.8807983398",
      "longitude": "-63.5085983276"
    },
    {
      "id": "74",
      "airportname": "atikokan municipal airport",
      "city": "atikokan",
      "country": "canada",
      "airportcode": "yib",
      "abv": "cyib",
      "latitude": "48.7738990784",
      "longitude": "-91.6386032104"
    },
    {
      "id": "75",
      "airportname": "pond inlet airport",
      "city": "pond inlet",
      "country": "canada",
      "airportcode": "yio",
      "abv": "cyio",
      "latitude": "72.6832962036",
      "longitude": "-77.9666976929"
    },
    {
      "id": "76",
      "airportname": "st jean airport",
      "city": "st. jean",
      "country": "canada",
      "airportcode": "yjn",
      "abv": "cyjn",
      "latitude": "45.29439926147461",
      "longitude": "-73.28109741210938"
    },
    {
      "id": "77",
      "airportname": "stephenville airport",
      "city": "stephenville",
      "country": "canada",
      "airportcode": "yjt",
      "abv": "cyjt",
      "latitude": "48.5442008972168",
      "longitude": "-58.54999923706055"
    },
    {
      "id": "78",
      "airportname": "kamloops airport",
      "city": "kamloops",
      "country": "canada",
      "airportcode": "yka",
      "abv": "cyka",
      "latitude": "50.7022018433",
      "longitude": "-120.444000244"
    },
    {
      "id": "79",
      "airportname": "waterloo airport",
      "city": "waterloo",
      "country": "canada",
      "airportcode": "ykf",
      "abv": "cykf",
      "latitude": "43.460800170899994",
      "longitude": "-80.3786010742"
    },
    {
      "id": "80",
      "airportname": "schefferville airport",
      "city": "schefferville",
      "country": "canada",
      "airportcode": "ykl",
      "abv": "cykl",
      "latitude": "54.805301666259766",
      "longitude": "-66.8052978515625"
    },
    {
      "id": "81",
      "airportname": "kindersley airport",
      "city": "kindersley",
      "country": "canada",
      "airportcode": "yky",
      "abv": "cyky",
      "latitude": "51.5175018311",
      "longitude": "-109.180999756"
    },
    {
      "id": "82",
      "airportname": "buttonville municipal airport",
      "city": "toronto",
      "country": "canada",
      "airportcode": "ykz",
      "abv": "cykz",
      "latitude": "43.86220169067383",
      "longitude": "-79.37000274658203"
    },
    {
      "id": "83",
      "airportname": "chapleau airport",
      "city": "chapleau",
      "country": "canada",
      "airportcode": "yld",
      "abv": "cyld",
      "latitude": "47.81999969482422",
      "longitude": "-83.3467025756836"
    },
    {
      "id": "84",
      "airportname": "meadow lake airport",
      "city": "meadow lake",
      "country": "canada",
      "airportcode": "ylj",
      "abv": "cylj",
      "latitude": "54.125301361083984",
      "longitude": "-108.52300262451172"
    },
    {
      "id": "85",
      "airportname": "lloydminster airport",
      "city": "lloydminster",
      "country": "canada",
      "airportcode": "yll",
      "abv": "cyll",
      "latitude": "53.309200286865234",
      "longitude": "-110.072998046875"
    },
    {
      "id": "86",
      "airportname": "alert airport",
      "city": "alert",
      "country": "canada",
      "airportcode": "ylt",
      "abv": "cylt",
      "latitude": "82.51779937740001",
      "longitude": "-62.2806015015"
    },
    {
      "id": "87",
      "airportname": "kelowna international airport",
      "city": "kelowna",
      "country": "canada",
      "airportcode": "ylw",
      "abv": "cylw",
      "latitude": "49.9561004639",
      "longitude": "-119.377998352"
    },
    {
      "id": "88",
      "airportname": "mayo airport",
      "city": "mayo",
      "country": "canada",
      "airportcode": "yma",
      "abv": "cyma",
      "latitude": "63.61640167236328",
      "longitude": "-135.8679962158203"
    },
    {
      "id": "89",
      "airportname": "moose jaw air vice marshal c. m. mcewen airport",
      "city": "moose jaw",
      "country": "canada",
      "airportcode": "ymj",
      "abv": "cymj",
      "latitude": "50.330299377441406",
      "longitude": "-105.55899810791016"
    },
    {
      "id": "90",
      "airportname": "fort mcmurray airport",
      "city": "fort mcmurray",
      "country": "canada",
      "airportcode": "ymm",
      "abv": "cymm",
      "latitude": "56.653301239",
      "longitude": "-111.222000122"
    },
    {
      "id": "91",
      "airportname": "moosonee airport",
      "city": "moosonee",
      "country": "canada",
      "airportcode": "ymo",
      "abv": "cymo",
      "latitude": "51.291099548339844",
      "longitude": "-80.60780334472656"
    },
    {
      "id": "92",
      "airportname": "maniwaki airport",
      "city": "maniwaki",
      "country": "canada",
      "airportcode": "ymw",
      "abv": "cymw",
      "latitude": "46.2728004456",
      "longitude": "-75.9906005859"
    },
    {
      "id": "93",
      "airportname": "montreal international (mirabel) airport",
      "city": "montreal",
      "country": "canada",
      "airportcode": "ymx",
      "abv": "cymx",
      "latitude": "45.6795005798",
      "longitude": "-74.0386962891"
    },
    {
      "id": "94",
      "airportname": "natashquan airport",
      "city": "natashquan",
      "country": "canada",
      "airportcode": "yna",
      "abv": "cyna",
      "latitude": "50.189998626708984",
      "longitude": "-61.78919982910156"
    },
    {
      "id": "95",
      "airportname": "ottawa / gatineau airport",
      "city": "gatineau",
      "country": "canada",
      "airportcode": "ynd",
      "abv": "cynd",
      "latitude": "45.521701812699995",
      "longitude": "-75.5635986328"
    },
    {
      "id": "96",
      "airportname": "matagami airport",
      "city": "matagami",
      "country": "canada",
      "airportcode": "ynm",
      "abv": "cynm",
      "latitude": "49.76169967651367",
      "longitude": "-77.80280303955078"
    },
    {
      "id": "97",
      "airportname": "old crow airport",
      "city": "old crow",
      "country": "canada",
      "airportcode": "yoc",
      "abv": "cyoc",
      "latitude": "67.57060241699219",
      "longitude": "-139.83900451660156"
    },
    {
      "id": "98",
      "airportname": "cfb cold lake",
      "city": "cold lake",
      "country": "canada",
      "airportcode": "yod",
      "abv": "cyod",
      "latitude": "54.404998779296875",
      "longitude": "-110.27899932861328"
    },
    {
      "id": "99",
      "airportname": "high level airport",
      "city": "high level",
      "country": "canada",
      "airportcode": "yoj",
      "abv": "cyoj",
      "latitude": "58.62139892578125",
      "longitude": "-117.16500091552734"
    },
    {
      "id": "100",
      "airportname": "ottawa macdonald-cartier international airport",
      "city": "ottawa",
      "country": "canada",
      "airportcode": "yow",
      "abv": "cyow",
      "latitude": "45.3224983215332",
      "longitude": "-75.66919708251953"
    },
    {
      "id": "101",
      "airportname": "prince albert glass field",
      "city": "prince albert",
      "country": "canada",
      "airportcode": "ypa",
      "abv": "cypa",
      "latitude": "53.214199066199996",
      "longitude": "-105.672996521"
    },
    {
      "id": "102",
      "airportname": "peace river airport",
      "city": "peace river",
      "country": "canada",
      "airportcode": "ype",
      "abv": "cype",
      "latitude": "56.226898193359375",
      "longitude": "-117.4469985961914"
    },
    {
      "id": "103",
      "airportname": "southport airport",
      "city": "portage-la-prairie",
      "country": "canada",
      "airportcode": "ypg",
      "abv": "cypg",
      "latitude": "49.903099",
      "longitude": "-98.273817"
    },
    {
      "id": "104",
      "airportname": "pitt meadows airport",
      "city": "pitt meadows",
      "country": "canada",
      "airportcode": "\\n",
      "abv": "cypk",
      "latitude": "49.21609878540039",
      "longitude": "-122.70999908447266"
    },
    {
      "id": "105",
      "airportname": "pickle lake airport",
      "city": "pickle lake",
      "country": "canada",
      "airportcode": "ypl",
      "abv": "cypl",
      "latitude": "51.4463996887207",
      "longitude": "-90.21420288085938"
    },
    {
      "id": "106",
      "airportname": "port menier airport",
      "city": "port menier",
      "country": "canada",
      "airportcode": "ypn",
      "abv": "cypn",
      "latitude": "49.83639907836914",
      "longitude": "-64.2885971069336"
    },
    {
      "id": "107",
      "airportname": "peterborough airport",
      "city": "peterborough",
      "country": "canada",
      "airportcode": "ypq",
      "abv": "cypq",
      "latitude": "44.22999954223633",
      "longitude": "-78.36329650878906"
    },
    {
      "id": "108",
      "airportname": "prince rupert airport",
      "city": "prince pupert",
      "country": "canada",
      "airportcode": "ypr",
      "abv": "cypr",
      "latitude": "54.286098480199996",
      "longitude": "-130.445007324"
    },
    {
      "id": "109",
      "airportname": "fort chipewyan airport",
      "city": "fort chipewyan",
      "country": "canada",
      "airportcode": "ypy",
      "abv": "cypy",
      "latitude": "58.7672004699707",
      "longitude": "-111.11699676513672"
    },
    {
      "id": "110",
      "airportname": "muskoka airport",
      "city": "muskoka",
      "country": "canada",
      "airportcode": "yqa",
      "abv": "cyqa",
      "latitude": "44.974700927734375",
      "longitude": "-79.30329895019531"
    },
    {
      "id": "111",
      "airportname": "quebec jean lesage international airport",
      "city": "quebec",
      "country": "canada",
      "airportcode": "yqb",
      "abv": "cyqb",
      "latitude": "46.7911",
      "longitude": "-71.393303"
    },
    {
      "id": "112",
      "airportname": "red deer regional airport",
      "city": "red deer industrial",
      "country": "canada",
      "airportcode": "yqf",
      "abv": "cyqf",
      "latitude": "52.18220138549805",
      "longitude": "-113.89399719238281"
    },
    {
      "id": "113",
      "airportname": "windsor airport",
      "city": "windsor",
      "country": "canada",
      "airportcode": "yqg",
      "abv": "cyqg",
      "latitude": "42.27560043334961",
      "longitude": "-82.95559692382812"
    },
    {
      "id": "114",
      "airportname": "watson lake airport",
      "city": "watson lake",
      "country": "canada",
      "airportcode": "yqh",
      "abv": "cyqh",
      "latitude": "60.11640167236328",
      "longitude": "-128.82200622558594"
    },
    {
      "id": "115",
      "airportname": "kenora airport",
      "city": "kenora",
      "country": "canada",
      "airportcode": "yqk",
      "abv": "cyqk",
      "latitude": "49.788299560546875",
      "longitude": "-94.36309814453125"
    },
    {
      "id": "116",
      "airportname": "lethbridge county airport",
      "city": "lethbridge",
      "country": "canada",
      "airportcode": "yql",
      "abv": "cyql",
      "latitude": "49.6302986145",
      "longitude": "-112.800003052"
    },
    {
      "id": "117",
      "airportname": "greater moncton international airport",
      "city": "moncton",
      "country": "canada",
      "airportcode": "yqm",
      "abv": "cyqm",
      "latitude": "46.11220169067383",
      "longitude": "-64.67859649658203"
    },
    {
      "id": "119",
      "airportname": "comox airport",
      "city": "comox",
      "country": "canada",
      "airportcode": "yqq",
      "abv": "cyqq",
      "latitude": "49.71080017089844",
      "longitude": "-124.88700103759766"
    },
    {
      "id": "120",
      "airportname": "regina international airport",
      "city": "regina",
      "country": "canada",
      "airportcode": "yqr",
      "abv": "cyqr",
      "latitude": "50.43190002441406",
      "longitude": "-104.66600036621094"
    },
    {
      "id": "121",
      "airportname": "thunder bay airport",
      "city": "thunder bay",
      "country": "canada",
      "airportcode": "yqt",
      "abv": "cyqt",
      "latitude": "48.37189865112305",
      "longitude": "-89.32389831542969"
    },
    {
      "id": "122",
      "airportname": "grande prairie airport",
      "city": "grande prairie",
      "country": "canada",
      "airportcode": "yqu",
      "abv": "cyqu",
      "latitude": "55.1796989441",
      "longitude": "-118.885002136"
    },
    {
      "id": "123",
      "airportname": "yorkton municipal airport",
      "city": "yorkton",
      "country": "canada",
      "airportcode": "yqv",
      "abv": "cyqv",
      "latitude": "51.26470184326172",
      "longitude": "-102.46199798583984"
    },
    {
      "id": "124",
      "airportname": "north battleford airport",
      "city": "north battleford",
      "country": "canada",
      "airportcode": "yqw",
      "abv": "cyqw",
      "latitude": "52.76919937133789",
      "longitude": "-108.24400329589844"
    },
    {
      "id": "125",
      "airportname": "gander international airport",
      "city": "gander",
      "country": "canada",
      "airportcode": "yqx",
      "abv": "cyqx",
      "latitude": "48.9369010925293",
      "longitude": "-54.56809997558594"
    },
    {
      "id": "126",
      "airportname": "sydney / j.a. douglas mccurdy airport",
      "city": "sydney",
      "country": "canada",
      "airportcode": "yqy",
      "abv": "cyqy",
      "latitude": "46.161399841299996",
      "longitude": "-60.0477981567"
    },
    {
      "id": "127",
      "airportname": "quesnel airport",
      "city": "quesnel",
      "country": "canada",
      "airportcode": "yqz",
      "abv": "cyqz",
      "latitude": "53.026100158691406",
      "longitude": "-122.51000213623047"
    },
    {
      "id": "128",
      "airportname": "resolute bay airport",
      "city": "resolute",
      "country": "canada",
      "airportcode": "yrb",
      "abv": "cyrb",
      "latitude": "74.7169036865",
      "longitude": "-94.9693984985"
    },
    {
      "id": "129",
      "airportname": "rivière-du-loup airport",
      "city": "riviere du loup",
      "country": "canada",
      "airportcode": "yri",
      "abv": "cyri",
      "latitude": "47.764400482177734",
      "longitude": "-69.58470153808594"
    },
    {
      "id": "130",
      "airportname": "roberval airport",
      "city": "roberval",
      "country": "canada",
      "airportcode": "yrj",
      "abv": "cyrj",
      "latitude": "48.52000045776367",
      "longitude": "-72.2656021118164"
    },
    {
      "id": "131",
      "airportname": "rocky mountain house airport",
      "city": "rocky mountain house",
      "country": "canada",
      "airportcode": "yrm",
      "abv": "cyrm",
      "latitude": "52.4296989441",
      "longitude": "-114.903999329"
    },
    {
      "id": "132",
      "airportname": "rankin inlet airport",
      "city": "rankin inlet",
      "country": "canada",
      "airportcode": "yrt",
      "abv": "cyrt",
      "latitude": "62.8114013672",
      "longitude": "-92.1157989502"
    },
    {
      "id": "133",
      "airportname": "sudbury airport",
      "city": "sudbury",
      "country": "canada",
      "airportcode": "ysb",
      "abv": "cysb",
      "latitude": "46.625",
      "longitude": "-80.79889678955078"
    },
    {
      "id": "134",
      "airportname": "sherbrooke airport",
      "city": "sherbrooke",
      "country": "canada",
      "airportcode": "ysc",
      "abv": "cysc",
      "latitude": "45.4385986328125",
      "longitude": "-71.69139862060547"
    },
    {
      "id": "135",
      "airportname": "saint john airport",
      "city": "st. john",
      "country": "canada",
      "airportcode": "ysj",
      "abv": "cysj",
      "latitude": "45.31610107421875",
      "longitude": "-65.89029693603516"
    },
    {
      "id": "136",
      "airportname": "fort smith airport",
      "city": "fort smith",
      "country": "canada",
      "airportcode": "ysm",
      "abv": "cysm",
      "latitude": "60.020301818847656",
      "longitude": "-111.96199798583984"
    },
    {
      "id": "137",
      "airportname": "nanisivik airport",
      "city": "nanisivik",
      "country": "canada",
      "airportcode": "ysr",
      "abv": "cysr",
      "latitude": "72.982201",
      "longitude": "-84.613602"
    },
    {
      "id": "138",
      "airportname": "summerside airport",
      "city": "summerside",
      "country": "canada",
      "airportcode": "ysu",
      "abv": "cysu",
      "latitude": "46.44060134887695",
      "longitude": "-63.83359909057617"
    },
    {
      "id": "139",
      "airportname": "sachs harbour (david nasogaluak jr. saaryuaq) airport",
      "city": "sachs harbour",
      "country": "canada",
      "airportcode": "ysy",
      "abv": "cysy",
      "latitude": "71.9938964844",
      "longitude": "-125.242996216"
    },
    {
      "id": "140",
      "airportname": "cape dorset airport",
      "city": "cape dorset",
      "country": "canada",
      "airportcode": "yte",
      "abv": "cyte",
      "latitude": "64.2300033569",
      "longitude": "-76.5267028809"
    },
    {
      "id": "141",
      "airportname": "thompson airport",
      "city": "thompson",
      "country": "canada",
      "airportcode": "yth",
      "abv": "cyth",
      "latitude": "55.80110168457031",
      "longitude": "-97.86419677734375"
    },
    {
      "id": "142",
      "airportname": "cfb trenton",
      "city": "trenton",
      "country": "canada",
      "airportcode": "ytr",
      "abv": "cytr",
      "latitude": "44.118900299072266",
      "longitude": "-77.5280990600586"
    },
    {
      "id": "143",
      "airportname": "timmins/victor m. power",
      "city": "timmins",
      "country": "canada",
      "airportcode": "yts",
      "abv": "cyts",
      "latitude": "48.569698333699996",
      "longitude": "-81.376701355"
    },
    {
      "id": "144",
      "airportname": "billy bishop toronto city centre airport",
      "city": "toronto",
      "country": "canada",
      "airportcode": "ytz",
      "abv": "cytz",
      "latitude": "43.627499",
      "longitude": "-79.396202"
    },
    {
      "id": "145",
      "airportname": "tuktoyaktuk airport",
      "city": "tuktoyaktuk",
      "country": "canada",
      "airportcode": "yub",
      "abv": "cyub",
      "latitude": "69.43329620361328",
      "longitude": "-133.0260009765625"
    },
    {
      "id": "146",
      "airportname": "montreal / pierre elliott trudeau international airport",
      "city": "montreal",
      "country": "canada",
      "airportcode": "yul",
      "abv": "cyul",
      "latitude": "45.4706001282",
      "longitude": "-73.7407989502"
    },
    {
      "id": "147",
      "airportname": "repulse bay airport",
      "city": "repulse bay",
      "country": "canada",
      "airportcode": "yut",
      "abv": "cyut",
      "latitude": "66.5214004517",
      "longitude": "-86.22470092770001"
    },
    {
      "id": "148",
      "airportname": "hall beach airport",
      "city": "hall beach",
      "country": "canada",
      "airportcode": "yux",
      "abv": "cyux",
      "latitude": "68.77610015869999",
      "longitude": "-81.2425"
    },
    {
      "id": "149",
      "airportname": "rouyn noranda airport",
      "city": "rouyn",
      "country": "canada",
      "airportcode": "yuy",
      "abv": "cyuy",
      "latitude": "48.20610046386719",
      "longitude": "-78.83560180664062"
    },
    {
      "id": "150",
      "airportname": "la ronge airport",
      "city": "la ronge",
      "country": "canada",
      "airportcode": "yvc",
      "abv": "cyvc",
      "latitude": "55.151401519800004",
      "longitude": "-105.262001038"
    },
    {
      "id": "151",
      "airportname": "vermilion airport",
      "city": "vermillion",
      "country": "canada",
      "airportcode": "yvg",
      "abv": "cyvg",
      "latitude": "53.355800628699996",
      "longitude": "-110.823997498"
    },
    {
      "id": "152",
      "airportname": "qikiqtarjuaq airport",
      "city": "broughton island",
      "country": "canada",
      "airportcode": "yvm",
      "abv": "cyvm",
      "latitude": "67.5457992554",
      "longitude": "-64.03140258789999"
    },
    {
      "id": "153",
      "airportname": "val-d'or airport",
      "city": "val d'or",
      "country": "canada",
      "airportcode": "yvo",
      "abv": "cyvo",
      "latitude": "48.0532989502",
      "longitude": "-77.7827987671"
    },
    {
      "id": "154",
      "airportname": "kuujjuaq airport",
      "city": "quujjuaq",
      "country": "canada",
      "airportcode": "yvp",
      "abv": "cyvp",
      "latitude": "58.096099853515625",
      "longitude": "-68.4269027709961"
    },
    {
      "id": "155",
      "airportname": "norman wells airport",
      "city": "norman wells",
      "country": "canada",
      "airportcode": "yvq",
      "abv": "cyvq",
      "latitude": "65.28160095214844",
      "longitude": "-126.7979965209961"
    },
    {
      "id": "156",
      "airportname": "vancouver international airport",
      "city": "vancouver",
      "country": "canada",
      "airportcode": "yvr",
      "abv": "cyvr",
      "latitude": "49.193901062",
      "longitude": "-123.183998108"
    },
    {
      "id": "157",
      "airportname": "buffalo narrows airport",
      "city": "buffalo narrows",
      "country": "canada",
      "airportcode": "yvt",
      "abv": "cyvt",
      "latitude": "55.8418998718",
      "longitude": "-108.417999268"
    },
    {
      "id": "158",
      "airportname": "wiarton airport",
      "city": "wiarton",
      "country": "canada",
      "airportcode": "yvv",
      "abv": "cyvv",
      "latitude": "44.7458",
      "longitude": "-81.107201"
    },
    {
      "id": "159",
      "airportname": "petawawa airport",
      "city": "petawawa",
      "country": "canada",
      "airportcode": "ywa",
      "abv": "cywa",
      "latitude": "45.95220184326172",
      "longitude": "-77.31919860839844"
    },
    {
      "id": "160",
      "airportname": "winnipeg / james armstrong richardson international airport",
      "city": "winnipeg",
      "country": "canada",
      "airportcode": "ywg",
      "abv": "cywg",
      "latitude": "49.909999847399995",
      "longitude": "-97.2398986816"
    },
    {
      "id": "161",
      "airportname": "wabush airport",
      "city": "wabush",
      "country": "canada",
      "airportcode": "ywk",
      "abv": "cywk",
      "latitude": "52.92190170288086",
      "longitude": "-66.8644027709961"
    },
    {
      "id": "162",
      "airportname": "williams lake airport",
      "city": "williams lake",
      "country": "canada",
      "airportcode": "ywl",
      "abv": "cywl",
      "latitude": "52.1831016541",
      "longitude": "-122.054000854"
    },
    {
      "id": "163",
      "airportname": "wrigley airport",
      "city": "wrigley",
      "country": "canada",
      "airportcode": "ywy",
      "abv": "cywy",
      "latitude": "63.20940017700195",
      "longitude": "-123.43699645996094"
    },
    {
      "id": "164",
      "airportname": "cranbrook/canadian rockies international airport",
      "city": "cranbrook",
      "country": "canada",
      "airportcode": "yxc",
      "abv": "cyxc",
      "latitude": "49.610801696777",
      "longitude": "-115.78199768066"
    },
    {
      "id": "165",
      "airportname": "edmonton city centre (blatchford field) airport",
      "city": "edmonton",
      "country": "canada",
      "airportcode": "yxd",
      "abv": "cyxd",
      "latitude": "53.5724983215",
      "longitude": "-113.521003723"
    },
    {
      "id": "166",
      "airportname": "saskatoon john g. diefenbaker international airport",
      "city": "saskatoon",
      "country": "canada",
      "airportcode": "yxe",
      "abv": "cyxe",
      "latitude": "52.170799255371094",
      "longitude": "-106.69999694824219"
    },
    {
      "id": "167",
      "airportname": "medicine hat airport",
      "city": "medicine hat",
      "country": "canada",
      "airportcode": "yxh",
      "abv": "cyxh",
      "latitude": "50.01890182495117",
      "longitude": "-110.72100067138672"
    },
    {
      "id": "168",
      "airportname": "fort st john airport",
      "city": "fort saint john",
      "country": "canada",
      "airportcode": "yxj",
      "abv": "cyxj",
      "latitude": "56.23809814453125",
      "longitude": "-120.73999786376953"
    },
    {
      "id": "169",
      "airportname": "sioux lookout airport",
      "city": "sioux lookout",
      "country": "canada",
      "airportcode": "yxl",
      "abv": "cyxl",
      "latitude": "50.11389923095703",
      "longitude": "-91.9052963256836"
    },
    {
      "id": "170",
      "airportname": "pangnirtung airport",
      "city": "pangnirtung",
      "country": "canada",
      "airportcode": "yxp",
      "abv": "cyxp",
      "latitude": "66.1449966431",
      "longitude": "-65.71360015869999"
    },
    {
      "id": "171",
      "airportname": "earlton (timiskaming regional) airport",
      "city": "earlton",
      "country": "canada",
      "airportcode": "yxr",
      "abv": "cyxr",
      "latitude": "47.697400654599996",
      "longitude": "-79.8473453522"
    },
    {
      "id": "172",
      "airportname": "prince george airport",
      "city": "prince george",
      "country": "canada",
      "airportcode": "yxs",
      "abv": "cyxs",
      "latitude": "53.8894004822",
      "longitude": "-122.679000854"
    },
    {
      "id": "173",
      "airportname": "northwest regional airport terrace-kitimat",
      "city": "terrace",
      "country": "canada",
      "airportcode": "yxt",
      "abv": "cyxt",
      "latitude": "54.468498",
      "longitude": "-128.576009"
    },
    {
      "id": "174",
      "airportname": "london airport",
      "city": "london",
      "country": "canada",
      "airportcode": "yxu",
      "abv": "cyxu",
      "latitude": "43.035599",
      "longitude": "-81.1539"
    },
    {
      "id": "175",
      "airportname": "abbotsford airport",
      "city": "abbotsford",
      "country": "canada",
      "airportcode": "yxx",
      "abv": "cyxx",
      "latitude": "49.025299072265625",
      "longitude": "-122.36100006103516"
    },
    {
      "id": "176",
      "airportname": "whitehorse / erik nielsen international airport",
      "city": "whitehorse",
      "country": "canada",
      "airportcode": "yxy",
      "abv": "cyxy",
      "latitude": "60.7095985413",
      "longitude": "-135.067001343"
    },
    {
      "id": "177",
      "airportname": "north bay airport",
      "city": "north bay",
      "country": "canada",
      "airportcode": "yyb",
      "abv": "cyyb",
      "latitude": "46.36360168457031",
      "longitude": "-79.42279815673828"
    },
    {
      "id": "178",
      "airportname": "calgary international airport",
      "city": "calgary",
      "country": "canada",
      "airportcode": "yyc",
      "abv": "cyyc",
      "latitude": "51.113899231",
      "longitude": "-114.019996643"
    },
    {
      "id": "179",
      "airportname": "smithers airport",
      "city": "smithers",
      "country": "canada",
      "airportcode": "yyd",
      "abv": "cyyd",
      "latitude": "54.82469940185547",
      "longitude": "-127.18299865722656"
    },
    {
      "id": "180",
      "airportname": "fort nelson airport",
      "city": "fort nelson",
      "country": "canada",
      "airportcode": "yye",
      "abv": "cyye",
      "latitude": "58.8363990784",
      "longitude": "-122.597000122"
    },
    {
      "id": "181",
      "airportname": "penticton airport",
      "city": "penticton",
      "country": "canada",
      "airportcode": "yyf",
      "abv": "cyyf",
      "latitude": "49.46310043334961",
      "longitude": "-119.60199737548828"
    },
    {
      "id": "182",
      "airportname": "charlottetown airport",
      "city": "charlottetown",
      "country": "canada",
      "airportcode": "yyg",
      "abv": "cyyg",
      "latitude": "46.290000915527344",
      "longitude": "-63.12110137939453"
    },
    {
      "id": "183",
      "airportname": "taloyoak airport",
      "city": "spence bay",
      "country": "canada",
      "airportcode": "yyh",
      "abv": "cyyh",
      "latitude": "69.5466995239",
      "longitude": "-93.5766983032"
    },
    {
      "id": "184",
      "airportname": "victoria international airport",
      "city": "victoria",
      "country": "canada",
      "airportcode": "yyj",
      "abv": "cyyj",
      "latitude": "48.646900177",
      "longitude": "-123.426002502"
    },
    {
      "id": "185",
      "airportname": "lynn lake airport",
      "city": "lynn lake",
      "country": "canada",
      "airportcode": "yyl",
      "abv": "cyyl",
      "latitude": "56.86389923095703",
      "longitude": "-101.07599639892578"
    },
    {
      "id": "186",
      "airportname": "swift current airport",
      "city": "swift current",
      "country": "canada",
      "airportcode": "yyn",
      "abv": "cyyn",
      "latitude": "50.291900634799994",
      "longitude": "-107.691001892"
    },
    {
      "id": "187",
      "airportname": "churchill airport",
      "city": "churchill",
      "country": "canada",
      "airportcode": "yyq",
      "abv": "cyyq",
      "latitude": "58.739200592041016",
      "longitude": "-94.06500244140625"
    },
    {
      "id": "188",
      "airportname": "goose bay airport",
      "city": "goose bay",
      "country": "canada",
      "airportcode": "yyr",
      "abv": "cyyr",
      "latitude": "53.3191986084",
      "longitude": "-60.4258003235"
    },
    {
      "id": "189",
      "airportname": "st. john's international airport",
      "city": "st. john's",
      "country": "canada",
      "airportcode": "yyt",
      "abv": "cyyt",
      "latitude": "47.618598938",
      "longitude": "-52.7518997192"
    },
    {
      "id": "190",
      "airportname": "kapuskasing airport",
      "city": "kapuskasing",
      "country": "canada",
      "airportcode": "yyu",
      "abv": "cyyu",
      "latitude": "49.41389846801758",
      "longitude": "-82.46749877929688"
    },
    {
      "id": "191",
      "airportname": "armstrong airport",
      "city": "armstrong",
      "country": "canada",
      "airportcode": "yyw",
      "abv": "cyyw",
      "latitude": "50.29029846191406",
      "longitude": "-88.90969848632812"
    },
    {
      "id": "192",
      "airportname": "mont joli airport",
      "city": "mont joli",
      "country": "canada",
      "airportcode": "yyy",
      "abv": "cyyy",
      "latitude": "48.60860061645508",
      "longitude": "-68.20809936523438"
    },
    {
      "id": "193",
      "airportname": "lester b. pearson international airport",
      "city": "toronto",
      "country": "canada",
      "airportcode": "yyz",
      "abv": "cyyz",
      "latitude": "43.6772003174",
      "longitude": "-79.63059997559999"
    },
    {
      "id": "194",
      "airportname": "downsview airport",
      "city": "toronto",
      "country": "canada",
      "airportcode": "yzd",
      "abv": "cyzd",
      "latitude": "43.74250030517578",
      "longitude": "-79.4655990600586"
    },
    {
      "id": "195",
      "airportname": "gore bay manitoulin airport",
      "city": "gore bay",
      "country": "canada",
      "airportcode": "yze",
      "abv": "cyze",
      "latitude": "45.88529968261719",
      "longitude": "-82.56780242919922"
    },
    {
      "id": "196",
      "airportname": "yellowknife airport",
      "city": "yellowknife",
      "country": "canada",
      "airportcode": "yzf",
      "abv": "cyzf",
      "latitude": "62.462799072265625",
      "longitude": "-114.44000244140625"
    },
    {
      "id": "197",
      "airportname": "slave lake airport",
      "city": "slave lake",
      "country": "canada",
      "airportcode": "yzh",
      "abv": "cyzh",
      "latitude": "55.2930984497",
      "longitude": "-114.777000427"
    },
    {
      "id": "198",
      "airportname": "sandspit airport",
      "city": "sandspit",
      "country": "canada",
      "airportcode": "yzp",
      "abv": "cyzp",
      "latitude": "53.25429916379999",
      "longitude": "-131.813995361"
    },
    {
      "id": "199",
      "airportname": "chris hadfield airport",
      "city": "sarnia",
      "country": "canada",
      "airportcode": "yzr",
      "abv": "cyzr",
      "latitude": "42.9994010925293",
      "longitude": "-82.30889892578125"
    },
    {
      "id": "200",
      "airportname": "port hardy airport",
      "city": "port hardy",
      "country": "canada",
      "airportcode": "yzt",
      "abv": "cyzt",
      "latitude": "50.680599212646484",
      "longitude": "-127.36699676513672"
    },
    {
      "id": "201",
      "airportname": "whitecourt airport",
      "city": "whitecourt",
      "country": "canada",
      "airportcode": "yzu",
      "abv": "cyzu",
      "latitude": "54.14390182495117",
      "longitude": "-115.78700256347656"
    },
    {
      "id": "202",
      "airportname": "sept-îles airport",
      "city": "sept-iles",
      "country": "canada",
      "airportcode": "yzv",
      "abv": "cyzv",
      "latitude": "50.22330093383789",
      "longitude": "-66.2656021118164"
    },
    {
      "id": "203",
      "airportname": "teslin airport",
      "city": "teslin",
      "country": "canada",
      "airportcode": "yzw",
      "abv": "cyzw",
      "latitude": "60.17279815673828",
      "longitude": "-132.7429962158203"
    },
    {
      "id": "204",
      "airportname": "cfb greenwood",
      "city": "greenwood",
      "country": "canada",
      "airportcode": "yzx",
      "abv": "cyzx",
      "latitude": "44.98440170288086",
      "longitude": "-64.91690063476562"
    },
    {
      "id": "205",
      "airportname": "faro airport",
      "city": "faro",
      "country": "canada",
      "airportcode": "zfa",
      "abv": "czfa",
      "latitude": "62.20750045776367",
      "longitude": "-133.37600708007812"
    },
    {
      "id": "206",
      "airportname": "fort mcpherson airport",
      "city": "fort mcpherson",
      "country": "canada",
      "airportcode": "zfm",
      "abv": "czfm",
      "latitude": "67.40750122070312",
      "longitude": "-134.86099243164062"
    },
    {
      "id": "207",
      "airportname": "blida airport",
      "city": "blida",
      "country": "algeria",
      "airportcode": "\\n",
      "abv": "daab",
      "latitude": "36.50360107421875",
      "longitude": "2.8141698837280273"
    },
    {
      "id": "208",
      "airportname": "bou saada airport",
      "city": "bou saada",
      "country": "algeria",
      "airportcode": "\\n",
      "abv": "daad",
      "latitude": "35.33250045776367",
      "longitude": "4.206389904022217"
    },
    {
      "id": "209",
      "airportname": "soummam airport",
      "city": "bejaja",
      "country": "algeria",
      "airportcode": "bja",
      "abv": "daae",
      "latitude": "36.7120018005",
      "longitude": "5.0699200630200005"
    },
    {
      "id": "210",
      "airportname": "houari boumediene airport",
      "city": "algier",
      "country": "algeria",
      "airportcode": "alg",
      "abv": "daag",
      "latitude": "36.691001892089844",
      "longitude": "3.215409994125366"
    },
    {
      "id": "211",
      "airportname": "djanet inedbirene airport",
      "city": "djanet",
      "country": "algeria",
      "airportcode": "djg",
      "abv": "daaj",
      "latitude": "24.292800903299998",
      "longitude": "9.45244026184"
    },
    {
      "id": "212",
      "airportname": "boufarik airport",
      "city": "boufarik",
      "country": "algeria",
      "airportcode": "qfd",
      "abv": "daak",
      "latitude": "36.545799",
      "longitude": "2.87611"
    },
    {
      "id": "213",
      "airportname": "reggane airport",
      "city": "reggan",
      "country": "algeria",
      "airportcode": "\\n",
      "abv": "daan",
      "latitude": "26.710100173950195",
      "longitude": "0.2856470048427582"
    },
    {
      "id": "214",
      "airportname": "illizi takhamalt airport",
      "city": "illizi",
      "country": "algeria",
      "airportcode": "vvz",
      "abv": "daap",
      "latitude": "26.7234992981",
      "longitude": "8.62265014648"
    },
    {
      "id": "215",
      "airportname": "ain oussera airport",
      "city": "ain oussera",
      "country": "algeria",
      "airportcode": "\\n",
      "abv": "daaq",
      "latitude": "35.52539825439453",
      "longitude": "2.8787100315093994"
    },
    {
      "id": "216",
      "airportname": "aguenar – hadj bey akhamok airport",
      "city": "tamanrasset",
      "country": "algeria",
      "airportcode": "tmr",
      "abv": "daat",
      "latitude": "22.8115005493",
      "longitude": "5.45107984543"
    },
    {
      "id": "217",
      "airportname": "jijel ferhat abbas airport",
      "city": "jijel",
      "country": "algeria",
      "airportcode": "gjl",
      "abv": "daav",
      "latitude": "36.7951011658",
      "longitude": "5.87361001968"
    },
    {
      "id": "218",
      "airportname": "mecheria airport",
      "city": "mecheria",
      "country": "algeria",
      "airportcode": "\\n",
      "abv": "daay",
      "latitude": "33.535900116",
      "longitude": "-0.242353007197"
    },
    {
      "id": "219",
      "airportname": "relizane airport",
      "city": "relizane",
      "country": "algeria",
      "airportcode": "\\n",
      "abv": "daaz",
      "latitude": "35.752201080322266",
      "longitude": "0.6262720227241516"
    },
    {
      "id": "220",
      "airportname": "annaba airport",
      "city": "annaba",
      "country": "algeria",
      "airportcode": "aae",
      "abv": "dabb",
      "latitude": "36.822200775146484",
      "longitude": "7.809169769287109"
    },
    {
      "id": "221",
      "airportname": "mohamed boudiaf international airport",
      "city": "constantine",
      "country": "algeria",
      "airportcode": "czl",
      "abv": "dabc",
      "latitude": "36.2760009765625",
      "longitude": "6.620389938354492"
    },
    {
      "id": "222",
      "airportname": "cheikh larbi tébessi airport",
      "city": "tebessa",
      "country": "algeria",
      "airportcode": "tee",
      "abv": "dabs",
      "latitude": "35.4315986633",
      "longitude": "8.12071990967"
    },
    {
      "id": "224",
      "airportname": "hassi r'mel airport",
      "city": "tilrempt",
      "country": "algeria",
      "airportcode": "hrm",
      "abv": "dafh",
      "latitude": "32.93040084838867",
      "longitude": "3.311539888381958"
    },
    {
      "id": "225",
      "airportname": "bou chekif airport",
      "city": "tiaret",
      "country": "algeria",
      "airportcode": "tid",
      "abv": "daob",
      "latitude": "35.3410987854",
      "longitude": "1.46315002441"
    },
    {
      "id": "226",
      "airportname": "bou sfer airport",
      "city": "bou sfer",
      "country": "algeria",
      "airportcode": "\\n",
      "abv": "daoe",
      "latitude": "35.73540115356445",
      "longitude": "-0.8053889870643616"
    },
    {
      "id": "227",
      "airportname": "tindouf airport",
      "city": "tindouf",
      "country": "algeria",
      "airportcode": "tin",
      "abv": "daof",
      "latitude": "27.7003993988",
      "longitude": "-8.167099952700001"
    },
    {
      "id": "228",
      "airportname": "ech cheliff airport",
      "city": "ech-cheliff",
      "country": "algeria",
      "airportcode": "qas",
      "abv": "daoi",
      "latitude": "36.2126998901",
      "longitude": "1.33176994324"
    },
    {
      "id": "229",
      "airportname": "tafaraoui airport",
      "city": "oran",
      "country": "algeria",
      "airportcode": "taf",
      "abv": "daol",
      "latitude": "35.54240036010742",
      "longitude": "-0.5322780013084412"
    },
    {
      "id": "230",
      "airportname": "zenata – messali el hadj airport",
      "city": "tlemcen",
      "country": "algeria",
      "airportcode": "tlm",
      "abv": "daon",
      "latitude": "35.0167007446",
      "longitude": "-1.45000004768"
    },
    {
      "id": "231",
      "airportname": "es senia airport",
      "city": "oran",
      "country": "algeria",
      "airportcode": "orn",
      "abv": "daoo",
      "latitude": "35.6239013672",
      "longitude": "-0.6211829781529999"
    },
    {
      "id": "232",
      "airportname": "sidi bel abbes airport",
      "city": "sidi bel abbes",
      "country": "algeria",
      "airportcode": "\\n",
      "abv": "daos",
      "latitude": "35.1717987061",
      "longitude": "-0.593275010586"
    },
    {
      "id": "233",
      "airportname": "ghriss airport",
      "city": "ghriss",
      "country": "algeria",
      "airportcode": "muw",
      "abv": "daov",
      "latitude": "35.207698822021484",
      "longitude": "0.14714199304580688"
    },
    {
      "id": "234",
      "airportname": "touat cheikh sidi mohamed belkebir airport",
      "city": "adrar",
      "country": "algeria",
      "airportcode": "azr",
      "abv": "daua",
      "latitude": "27.837600708007812",
      "longitude": "-0.18641400337219238"
    },
    {
      "id": "235",
      "airportname": "biskra airport",
      "city": "biskra",
      "country": "algeria",
      "airportcode": "bsk",
      "abv": "daub",
      "latitude": "34.793300628699996",
      "longitude": "5.73823022842"
    },
    {
      "id": "236",
      "airportname": "el golea airport",
      "city": "el golea",
      "country": "algeria",
      "airportcode": "elg",
      "abv": "daue",
      "latitude": "30.571300506591797",
      "longitude": "2.8595900535583496"
    },
    {
      "id": "237",
      "airportname": "noumérat - moufdi zakaria airport",
      "city": "ghardaia",
      "country": "algeria",
      "airportcode": "gha",
      "abv": "daug",
      "latitude": "32.38410186767578",
      "longitude": "3.794110059738159"
    },
    {
      "id": "238",
      "airportname": "oued irara airport",
      "city": "hassi messaoud",
      "country": "algeria",
      "airportcode": "hme",
      "abv": "dauh",
      "latitude": "31.673000335699996",
      "longitude": "6.140439987180001"
    },
    {
      "id": "239",
      "airportname": "in salah airport",
      "city": "in salah",
      "country": "algeria",
      "airportcode": "inz",
      "abv": "daui",
      "latitude": "27.250999450699997",
      "longitude": "2.51202011108"
    },
    {
      "id": "240",
      "airportname": "touggourt sidi madhi airport",
      "city": "touggourt",
      "country": "algeria",
      "airportcode": "tgr",
      "abv": "dauk",
      "latitude": "33.06779861450195",
      "longitude": "6.088669776916504"
    },
    {
      "id": "241",
      "airportname": "laghouat airport",
      "city": "laghouat",
      "country": "algeria",
      "airportcode": "loo",
      "abv": "daul",
      "latitude": "33.764400482199996",
      "longitude": "2.92833995819"
    },
    {
      "id": "242",
      "airportname": "timimoun airport",
      "city": "timimoun",
      "country": "algeria",
      "airportcode": "tmx",
      "abv": "daut",
      "latitude": "29.2371006012",
      "longitude": "0.276033014059"
    },
    {
      "id": "243",
      "airportname": "ain el beida airport",
      "city": "ouargla",
      "country": "algeria",
      "airportcode": "ogx",
      "abv": "dauu",
      "latitude": "31.917200088500977",
      "longitude": "5.412779808044434"
    },
    {
      "id": "244",
      "airportname": "in aménas airport",
      "city": "zarzaitine",
      "country": "algeria",
      "airportcode": "iam",
      "abv": "dauz",
      "latitude": "28.0515003204",
      "longitude": "9.64291000366"
    },
    {
      "id": "245",
      "airportname": "cadjehoun airport",
      "city": "cotonou",
      "country": "benin",
      "airportcode": "coo",
      "abv": "dbbb",
      "latitude": "6.357230186462402",
      "longitude": "2.384350061416626"
    },
    {
      "id": "246",
      "airportname": "ouagadougou airport",
      "city": "ouagadougou",
      "country": "burkina faso",
      "airportcode": "oua",
      "abv": "dffd",
      "latitude": "12.35319995880127",
      "longitude": "-1.5124200582504272"
    },
    {
      "id": "247",
      "airportname": "bobo dioulasso airport",
      "city": "bobo-dioulasso",
      "country": "burkina faso",
      "airportcode": "boy",
      "abv": "dfoo",
      "latitude": "11.160099983215332",
      "longitude": "-4.33096981048584"
    },
    {
      "id": "248",
      "airportname": "kotoka international airport",
      "city": "accra",
      "country": "ghana",
      "airportcode": "acc",
      "abv": "dgaa",
      "latitude": "5.605189800262451",
      "longitude": "-0.16678600013256073"
    },
    {
      "id": "249",
      "airportname": "tamale airport",
      "city": "tamale",
      "country": "ghana",
      "airportcode": "tml",
      "abv": "dgle",
      "latitude": "9.55718994140625",
      "longitude": "-0.8632140159606934"
    },
    {
      "id": "250",
      "airportname": "wa airport",
      "city": "wa",
      "country": "ghana",
      "airportcode": "\\n",
      "abv": "dglw",
      "latitude": "10.0826997756958",
      "longitude": "-2.507689952850342"
    },
    {
      "id": "251",
      "airportname": "sunyani airport",
      "city": "sunyani",
      "country": "ghana",
      "airportcode": "nyi",
      "abv": "dgsn",
      "latitude": "7.361830234527588",
      "longitude": "-2.3287599086761475"
    },
    {
      "id": "252",
      "airportname": "takoradi airport",
      "city": "takoradi",
      "country": "ghana",
      "airportcode": "tkd",
      "abv": "dgtk",
      "latitude": "4.896059989929199",
      "longitude": "-1.7747600078582764"
    },
    {
      "id": "253",
      "airportname": "port bouet airport",
      "city": "abidjan",
      "country": "cote d'ivoire",
      "airportcode": "abj",
      "abv": "diap",
      "latitude": "5.261390209197998",
      "longitude": "-3.9262900352478027"
    },
    {
      "id": "254",
      "airportname": "bouaké airport",
      "city": "bouake",
      "country": "cote d'ivoire",
      "airportcode": "byk",
      "abv": "dibk",
      "latitude": "7.738800048828125",
      "longitude": "-5.073669910430908"
    },
    {
      "id": "255",
      "airportname": "daloa airport",
      "city": "daloa",
      "country": "cote d'ivoire",
      "airportcode": "djo",
      "abv": "didl",
      "latitude": "6.792809963226318",
      "longitude": "-6.473189830780029"
    },
    {
      "id": "256",
      "airportname": "korhogo airport",
      "city": "korhogo",
      "country": "cote d'ivoire",
      "airportcode": "hgo",
      "abv": "diko",
      "latitude": "9.38718032837",
      "longitude": "-5.55666017532"
    },
    {
      "id": "257",
      "airportname": "man airport",
      "city": "man",
      "country": "cote d'ivoire",
      "airportcode": "mjc",
      "abv": "dimn",
      "latitude": "7.272069931030273",
      "longitude": "-7.58735990524292"
    },
    {
      "id": "258",
      "airportname": "san pedro airport",
      "city": "san pedro",
      "country": "cote d'ivoire",
      "airportcode": "spy",
      "abv": "disp",
      "latitude": "4.746719837188721",
      "longitude": "-6.660820007324219"
    },
    {
      "id": "259",
      "airportname": "yamoussoukro airport",
      "city": "yamoussoukro",
      "country": "cote d'ivoire",
      "airportcode": "ask",
      "abv": "diyo",
      "latitude": "6.9031701088",
      "longitude": "-5.36558008194"
    },
    {
      "id": "260",
      "airportname": "nnamdi azikiwe international airport",
      "city": "abuja",
      "country": "nigeria",
      "airportcode": "abv",
      "abv": "dnaa",
      "latitude": "9.006790161132812",
      "longitude": "7.263169765472412"
    },
    {
      "id": "261",
      "airportname": "akure airport",
      "city": "akure",
      "country": "nigeria",
      "airportcode": "akr",
      "abv": "dnak",
      "latitude": "7.246739864349365",
      "longitude": "5.3010101318359375"
    },
    {
      "id": "262",
      "airportname": "benin airport",
      "city": "benin",
      "country": "nigeria",
      "airportcode": "bni",
      "abv": "dnbe",
      "latitude": "6.316979885101318",
      "longitude": "5.5995001792907715"
    },
    {
      "id": "263",
      "airportname": "margaret ekpo international airport",
      "city": "calabar",
      "country": "nigeria",
      "airportcode": "cbq",
      "abv": "dnca",
      "latitude": "4.976019859313965",
      "longitude": "8.347200393676758"
    },
    {
      "id": "264",
      "airportname": "akanu ibiam international airport",
      "city": "enugu",
      "country": "nigeria",
      "airportcode": "enu",
      "abv": "dnen",
      "latitude": "6.474269866943359",
      "longitude": "7.561960220336914"
    },
    {
      "id": "265",
      "airportname": "gusau airport",
      "city": "gusau",
      "country": "nigeria",
      "airportcode": "qus",
      "abv": "dngu",
      "latitude": "12.171699523925781",
      "longitude": "6.696109771728516"
    },
    {
      "id": "266",
      "airportname": "ibadan airport",
      "city": "ibadan",
      "country": "nigeria",
      "airportcode": "iba",
      "abv": "dnib",
      "latitude": "7.362460136413574",
      "longitude": "3.97832989692688"
    },
    {
      "id": "267",
      "airportname": "ilorin international airport",
      "city": "ilorin",
      "country": "nigeria",
      "airportcode": "ilr",
      "abv": "dnil",
      "latitude": "8.440210342407227",
      "longitude": "4.493919849395752"
    },
    {
      "id": "268",
      "airportname": "yakubu gowon airport",
      "city": "jos",
      "country": "nigeria",
      "airportcode": "jos",
      "abv": "dnjo",
      "latitude": "9.639829635620117",
      "longitude": "8.869050025939941"
    },
    {
      "id": "269",
      "airportname": "kaduna airport",
      "city": "kaduna",
      "country": "nigeria",
      "airportcode": "kad",
      "abv": "dnka",
      "latitude": "10.696000099182129",
      "longitude": "7.320109844207764"
    },
    {
      "id": "270",
      "airportname": "mallam aminu international airport",
      "city": "kano",
      "country": "nigeria",
      "airportcode": "kan",
      "abv": "dnkn",
      "latitude": "12.047599792480469",
      "longitude": "8.524620056152344"
    },
    {
      "id": "271",
      "airportname": "maiduguri international airport",
      "city": "maiduguri",
      "country": "nigeria",
      "airportcode": "miu",
      "abv": "dnma",
      "latitude": "11.855299949645996",
      "longitude": "13.080900192260742"
    },
    {
      "id": "272",
      "airportname": "makurdi airport",
      "city": "makurdi",
      "country": "nigeria",
      "airportcode": "mdi",
      "abv": "dnmk",
      "latitude": "7.7038798332214355",
      "longitude": "8.613940238952637"
    },
    {
      "id": "273",
      "airportname": "murtala muhammed international airport",
      "city": "lagos",
      "country": "nigeria",
      "airportcode": "los",
      "abv": "dnmm",
      "latitude": "6.5773701667785645",
      "longitude": "3.321160078048706"
    },
    {
      "id": "274",
      "airportname": "minna airport",
      "city": "minna",
      "country": "nigeria",
      "airportcode": "mxj",
      "abv": "dnmn",
      "latitude": "9.652170181274414",
      "longitude": "6.462259769439697"
    },
    {
      "id": "275",
      "airportname": "port harcourt international airport",
      "city": "port hartcourt",
      "country": "nigeria",
      "airportcode": "phc",
      "abv": "dnpo",
      "latitude": "5.0154900550842285",
      "longitude": "6.94959020614624"
    },
    {
      "id": "276",
      "airportname": "sadiq abubakar iii international airport",
      "city": "sokoto",
      "country": "nigeria",
      "airportcode": "sko",
      "abv": "dnso",
      "latitude": "12.916299819946289",
      "longitude": "5.207190036773682"
    },
    {
      "id": "277",
      "airportname": "yola airport",
      "city": "yola",
      "country": "nigeria",
      "airportcode": "yol",
      "abv": "dnyo",
      "latitude": "9.257550239562988",
      "longitude": "12.430399894714355"
    },
    {
      "id": "278",
      "airportname": "zaria airport",
      "city": "zaria",
      "country": "nigeria",
      "airportcode": "zar",
      "abv": "dnza",
      "latitude": "11.130200386047363",
      "longitude": "7.685810089111328"
    },
    {
      "id": "279",
      "airportname": "maradi airport",
      "city": "maradi",
      "country": "niger",
      "airportcode": "mfq",
      "abv": "drrm",
      "latitude": "13.5024995803833",
      "longitude": "7.1267499923706055"
    },
    {
      "id": "280",
      "airportname": "diori hamani international airport",
      "city": "niamey",
      "country": "niger",
      "airportcode": "nim",
      "abv": "drrn",
      "latitude": "13.481499671936035",
      "longitude": "2.183609962463379"
    },
    {
      "id": "281",
      "airportname": "tahoua airport",
      "city": "tahoua",
      "country": "niger",
      "airportcode": "thz",
      "abv": "drrt",
      "latitude": "14.875699996948242",
      "longitude": "5.265359878540039"
    },
    {
      "id": "282",
      "airportname": "mano dayak international airport",
      "city": "agadez",
      "country": "niger",
      "airportcode": "ajy",
      "abv": "drza",
      "latitude": "16.965999603271484",
      "longitude": "8.000109672546387"
    },
    {
      "id": "283",
      "airportname": "dirkou airport",
      "city": "dirkou",
      "country": "niger",
      "airportcode": "\\n",
      "abv": "drzd",
      "latitude": "18.968700408935547",
      "longitude": "12.86870002746582"
    },
    {
      "id": "284",
      "airportname": "diffa airport",
      "city": "diffa",
      "country": "niger",
      "airportcode": "\\n",
      "abv": "drzf",
      "latitude": "13.372900009155273",
      "longitude": "12.626700401306152"
    },
    {
      "id": "285",
      "airportname": "zinder airport",
      "city": "zinder",
      "country": "niger",
      "airportcode": "znd",
      "abv": "drzr",
      "latitude": "13.779000282287598",
      "longitude": "8.983759880065918"
    },
    {
      "id": "286",
      "airportname": "monastir habib bourguiba international airport",
      "city": "monastir",
      "country": "tunisia",
      "airportcode": "mir",
      "abv": "dtmb",
      "latitude": "35.75809860229492",
      "longitude": "10.75469970703125"
    },
    {
      "id": "287",
      "airportname": "tunis carthage international airport",
      "city": "tunis",
      "country": "tunisia",
      "airportcode": "tun",
      "abv": "dtta",
      "latitude": "36.85100173950195",
      "longitude": "10.22719955444336"
    },
    {
      "id": "288",
      "airportname": "sidi ahmed air base",
      "city": "bizerte",
      "country": "tunisia",
      "airportcode": "\\n",
      "abv": "dttb",
      "latitude": "37.2453994751",
      "longitude": "9.79144954681"
    },
    {
      "id": "289",
      "airportname": "remada air base",
      "city": "remada",
      "country": "tunisia",
      "airportcode": "\\n",
      "abv": "dttd",
      "latitude": "32.30619812011719",
      "longitude": "10.382100105285645"
    },
    {
      "id": "290",
      "airportname": "gafsa ksar international airport",
      "city": "gafsa",
      "country": "tunisia",
      "airportcode": "gaf",
      "abv": "dttf",
      "latitude": "34.422000885009766",
      "longitude": "8.822500228881836"
    },
    {
      "id": "291",
      "airportname": "gabès matmata international airport",
      "city": "gabes",
      "country": "tunisia",
      "airportcode": "gae",
      "abv": "dttg",
      "latitude": "33.87689971923828",
      "longitude": "10.103300094604492"
    },
    {
      "id": "292",
      "airportname": "borj el amri airport",
      "city": "bordj el amri",
      "country": "tunisia",
      "airportcode": "\\n",
      "abv": "dtti",
      "latitude": "36.72129821777344",
      "longitude": "9.94314956665039"
    },
    {
      "id": "293",
      "airportname": "djerba zarzis international airport",
      "city": "djerba",
      "country": "tunisia",
      "airportcode": "dje",
      "abv": "dttj",
      "latitude": "33.875",
      "longitude": "10.775500297546387"
    },
    {
      "id": "294",
      "airportname": "el borma airport",
      "city": "el borma",
      "country": "tunisia",
      "airportcode": "ebm",
      "abv": "dttr",
      "latitude": "31.704299926757812",
      "longitude": "9.254619598388672"
    },
    {
      "id": "295",
      "airportname": "sfax thyna international airport",
      "city": "sfax",
      "country": "tunisia",
      "airportcode": "sfa",
      "abv": "dttx",
      "latitude": "34.71799850463867",
      "longitude": "10.690999984741211"
    },
    {
      "id": "296",
      "airportname": "tozeur nefta international airport",
      "city": "tozeur",
      "country": "tunisia",
      "airportcode": "toe",
      "abv": "dttz",
      "latitude": "33.939701080322266",
      "longitude": "8.110560417175293"
    },
    {
      "id": "297",
      "airportname": "niamtougou international airport",
      "city": "niatougou",
      "country": "togo",
      "airportcode": "lrl",
      "abv": "dxng",
      "latitude": "9.767330169677734",
      "longitude": "1.091249942779541"
    },
    {
      "id": "298",
      "airportname": "lomé-tokoin airport",
      "city": "lome",
      "country": "togo",
      "airportcode": "lfw",
      "abv": "dxxx",
      "latitude": "6.165609836578369",
      "longitude": "1.2545100450515747"
    },
    {
      "id": "299",
      "airportname": "antwerp international airport (deurne)",
      "city": "antwerp",
      "country": "belgium",
      "airportcode": "anr",
      "abv": "ebaw",
      "latitude": "51.1893997192",
      "longitude": "4.46027994156"
    },
    {
      "id": "300",
      "airportname": "beauvechain air base",
      "city": "beauvechain",
      "country": "belgium",
      "airportcode": "\\n",
      "abv": "ebbe",
      "latitude": "50.75859832763672",
      "longitude": "4.768330097198486"
    },
    {
      "id": "301",
      "airportname": "kleine brogel air base",
      "city": "kleine brogel",
      "country": "belgium",
      "airportcode": "\\n",
      "abv": "ebbl",
      "latitude": "51.168301",
      "longitude": "5.47"
    },
    {
      "id": "302",
      "airportname": "brussels airport",
      "city": "brussels",
      "country": "belgium",
      "airportcode": "bru",
      "abv": "ebbr",
      "latitude": "50.901401519800004",
      "longitude": "4.48443984985"
    },
    {
      "id": "303",
      "airportname": "jehonville air base",
      "city": "bertrix",
      "country": "belgium",
      "airportcode": "\\n",
      "abv": "ebbx",
      "latitude": "49.891700744628906",
      "longitude": "5.2238898277282715"
    },
    {
      "id": "304",
      "airportname": "brussels south charleroi airport",
      "city": "charleroi",
      "country": "belgium",
      "airportcode": "crl",
      "abv": "ebci",
      "latitude": "50.459201812699995",
      "longitude": "4.45382022858"
    },
    {
      "id": "305",
      "airportname": "chièvres air base",
      "city": "chievres",
      "country": "belgium",
      "airportcode": "\\n",
      "abv": "ebcv",
      "latitude": "50.575801849365234",
      "longitude": "3.8310000896453857"
    },
    {
      "id": "306",
      "airportname": "koksijde air base",
      "city": "koksijde",
      "country": "belgium",
      "airportcode": "\\n",
      "abv": "ebfn",
      "latitude": "51.090301513671875",
      "longitude": "2.652780055999756"
    },
    {
      "id": "307",
      "airportname": "florennes air base",
      "city": "florennes",
      "country": "belgium",
      "airportcode": "\\n",
      "abv": "ebfs",
      "latitude": "50.2433013916",
      "longitude": "4.64583015442"
    },
    {
      "id": "308",
      "airportname": "wevelgem airport",
      "city": "kortrijk-vevelgem",
      "country": "belgium",
      "airportcode": "qkt",
      "abv": "ebkt",
      "latitude": "50.817199707",
      "longitude": "3.20472002029"
    },
    {
      "id": "309",
      "airportname": "liège airport",
      "city": "liege",
      "country": "belgium",
      "airportcode": "lgg",
      "abv": "eblg",
      "latitude": "50.63740158081055",
      "longitude": "5.443220138549805"
    },
    {
      "id": "310",
      "airportname": "ostend-bruges international airport",
      "city": "ostend",
      "country": "belgium",
      "airportcode": "ost",
      "abv": "ebos",
      "latitude": "51.198898315399994",
      "longitude": "2.8622200489"
    },
    {
      "id": "311",
      "airportname": "zutendaal air base",
      "city": "zutendaal",
      "country": "belgium",
      "airportcode": "\\n",
      "abv": "ebsl",
      "latitude": "50.9474983215332",
      "longitude": "5.590559959411621"
    },
    {
      "id": "312",
      "airportname": "limburg regional airport",
      "city": "sint-truiden",
      "country": "belgium",
      "airportcode": "\\n",
      "abv": "ebst",
      "latitude": "50.791900634799994",
      "longitude": "5.20167016983"
    },
    {
      "id": "313",
      "airportname": "saint hubert air base",
      "city": "st.-hubert",
      "country": "belgium",
      "airportcode": "\\n",
      "abv": "ebsu",
      "latitude": "50.034400939941406",
      "longitude": "5.440810203552246"
    },
    {
      "id": "314",
      "airportname": "ursel air base",
      "city": "ursel",
      "country": "belgium",
      "airportcode": "\\n",
      "abv": "ebul",
      "latitude": "51.14419937133789",
      "longitude": "3.475559949874878"
    },
    {
      "id": "315",
      "airportname": "weelde air base",
      "city": "weelde",
      "country": "belgium",
      "airportcode": "\\n",
      "abv": "ebwe",
      "latitude": "51.394798278808594",
      "longitude": "4.9601898193359375"
    },
    {
      "id": "316",
      "airportname": "oostmalle air base",
      "city": "zoersel",
      "country": "belgium",
      "airportcode": "\\n",
      "abv": "ebzr",
      "latitude": "51.264702",
      "longitude": "4.75333"
    },
    {
      "id": "317",
      "airportname": "bautzen airport",
      "city": "bautzen",
      "country": "germany",
      "airportcode": "\\n",
      "abv": "edab",
      "latitude": "51.19361114501953",
      "longitude": "14.519721984863281"
    },
    {
      "id": "318",
      "airportname": "altenburg-nobitz airport",
      "city": "altenburg",
      "country": "germany",
      "airportcode": "aoc",
      "abv": "edac",
      "latitude": "50.9819450378418",
      "longitude": "12.506388664245605"
    },
    {
      "id": "319",
      "airportname": "dessau airport",
      "city": "dessau",
      "country": "germany",
      "airportcode": "\\n",
      "abv": "edad",
      "latitude": "51.831693541",
      "longitude": "12.1909618378"
    },
    {
      "id": "320",
      "airportname": "eisenhüttenstadt airport",
      "city": "eisenhuettenstadt",
      "country": "germany",
      "airportcode": "\\n",
      "abv": "edae",
      "latitude": "52.195856",
      "longitude": "14.58753"
    },
    {
      "id": "322",
      "airportname": "großenhain airport",
      "city": "suhl",
      "country": "germany",
      "airportcode": "\\n",
      "abv": "edak",
      "latitude": "51.30805587768555",
      "longitude": "13.555556297302246"
    },
    {
      "id": "323",
      "airportname": "merseburg airport",
      "city": "muehlhausen",
      "country": "germany",
      "airportcode": "\\n",
      "abv": "edam",
      "latitude": "51.3630556",
      "longitude": "11.9408333"
    },
    {
      "id": "324",
      "airportname": "halle-oppin airport",
      "city": "halle",
      "country": "germany",
      "airportcode": "\\n",
      "abv": "edaq",
      "latitude": "51.552223",
      "longitude": "12.053889"
    },
    {
      "id": "325",
      "airportname": "riesa-göhlis airport",
      "city": "riesa",
      "country": "germany",
      "airportcode": "\\n",
      "abv": "edau",
      "latitude": "51.2936096191",
      "longitude": "13.3561105728"
    },
    {
      "id": "326",
      "airportname": "rechlin-lärz airport",
      "city": "rechlin-laerz",
      "country": "germany",
      "airportcode": "\\n",
      "abv": "edax",
      "latitude": "53.306388855",
      "longitude": "12.7522220612"
    },
    {
      "id": "327",
      "airportname": "strausberg airport",
      "city": "strausberg",
      "country": "germany",
      "airportcode": "\\n",
      "abv": "eday",
      "latitude": "52.5805549621582",
      "longitude": "13.916666984558105"
    },
    {
      "id": "328",
      "airportname": "schönhagen airport",
      "city": "schoenhagen",
      "country": "germany",
      "airportcode": "\\n",
      "abv": "edaz",
      "latitude": "52.2036094666",
      "longitude": "13.1563892365"
    },
    {
      "id": "329",
      "airportname": "barth airport",
      "city": "barth",
      "country": "germany",
      "airportcode": "bbh",
      "abv": "edbh",
      "latitude": "54.338253",
      "longitude": "12.710515"
    },
    {
      "id": "330",
      "airportname": "jena-schöngleina airport",
      "city": "jena",
      "country": "germany",
      "airportcode": "\\n",
      "abv": "edbj",
      "latitude": "50.915279388427734",
      "longitude": "11.714444160461426"
    },
    {
      "id": "331",
      "airportname": "kyritz airport",
      "city": "kyritz",
      "country": "germany",
      "airportcode": "\\n",
      "abv": "edbk",
      "latitude": "52.918888092041016",
      "longitude": "12.425277709960938"
    },
    {
      "id": "332",
      "airportname": "magdeburg \\city\\ airport",
      "city": "magdeburg",
      "country": "germany",
      "airportcode": "\\n",
      "abv": "edbm",
      "latitude": "52.073612",
      "longitude": "11.626389"
    },
    {
      "id": "333",
      "airportname": "rothenburg/görlitz airport",
      "city": "rothenburg/ol",
      "country": "germany",
      "airportcode": "\\n",
      "abv": "edbr",
      "latitude": "51.36333465576172",
      "longitude": "14.949999809265137"
    },
    {
      "id": "334",
      "airportname": "anklam airport",
      "city": "anklam",
      "country": "germany",
      "airportcode": "\\n",
      "abv": "edca",
      "latitude": "53.83277893066406",
      "longitude": "13.668610572814941"
    },
    {
      "id": "335",
      "airportname": "cottbus-drewitz airport",
      "city": "cottbus",
      "country": "germany",
      "airportcode": "\\n",
      "abv": "edcd",
      "latitude": "51.889442",
      "longitude": "14.531944"
    },
    {
      "id": "336",
      "airportname": "kamenz airport",
      "city": "kamenz",
      "country": "germany",
      "airportcode": "\\n",
      "abv": "edcm",
      "latitude": "51.29694366455078",
      "longitude": "14.1274995803833"
    },
    {
      "id": "337",
      "airportname": "berlin-schönefeld international airport",
      "city": "berlin",
      "country": "germany",
      "airportcode": "sxf",
      "abv": "eddb",
      "latitude": "52.380001068115",
      "longitude": "13.522500038147"
    },
    {
      "id": "338",
      "airportname": "dresden airport",
      "city": "dresden",
      "country": "germany",
      "airportcode": "drs",
      "abv": "eddc",
      "latitude": "51.1328010559082",
      "longitude": "13.767200469970703"
    },
    {
      "id": "339",
      "airportname": "erfurt airport",
      "city": "erfurt",
      "country": "germany",
      "airportcode": "erf",
      "abv": "edde",
      "latitude": "50.979801177978516",
      "longitude": "10.958100318908691"
    },
    {
      "id": "340",
      "airportname": "frankfurt am main international airport",
      "city": "frankfurt",
      "country": "germany",
      "airportcode": "fra",
      "abv": "eddf",
      "latitude": "50.0333333",
      "longitude": "8.5705556"
    },
    {
      "id": "341",
      "airportname": "münster osnabrück airport",
      "city": "munster",
      "country": "germany",
      "airportcode": "fmo",
      "abv": "eddg",
      "latitude": "52.134601593",
      "longitude": "7.68483018875"
    },
    {
      "id": "342",
      "airportname": "hamburg airport",
      "city": "hamburg",
      "country": "germany",
      "airportcode": "ham",
      "abv": "eddh",
      "latitude": "53.630401611328",
      "longitude": "9.9882297515869"
    },
    {
      "id": "343",
      "airportname": "berlin-tempelhof international airport",
      "city": "berlin",
      "country": "germany",
      "airportcode": "thf",
      "abv": "eddi",
      "latitude": "52.472999572753906",
      "longitude": "13.403900146484375"
    },
    {
      "id": "344",
      "airportname": "cologne bonn airport",
      "city": "cologne",
      "country": "germany",
      "airportcode": "cgn",
      "abv": "eddk",
      "latitude": "50.8658981323",
      "longitude": "7.1427397728"
    },
    {
      "id": "345",
      "airportname": "düsseldorf international airport",
      "city": "duesseldorf",
      "country": "germany",
      "airportcode": "dus",
      "abv": "eddl",
      "latitude": "51.28950119018555",
      "longitude": "6.766779899597168"
    },
    {
      "id": "346",
      "airportname": "munich international airport",
      "city": "munich",
      "country": "germany",
      "airportcode": "muc",
      "abv": "eddm",
      "latitude": "48.353801727295",
      "longitude": "11.786100387573"
    },
    {
      "id": "347",
      "airportname": "nuremberg airport",
      "city": "nuernberg",
      "country": "germany",
      "airportcode": "nue",
      "abv": "eddn",
      "latitude": "49.498699",
      "longitude": "11.0780556"
    },
    {
      "id": "348",
      "airportname": "leipzig halle airport",
      "city": "leipzig",
      "country": "germany",
      "airportcode": "lej",
      "abv": "eddp",
      "latitude": "51.4238889",
      "longitude": "12.2363889"
    },
    {
      "id": "349",
      "airportname": "saarbrücken airport",
      "city": "saarbruecken",
      "country": "germany",
      "airportcode": "scn",
      "abv": "eddr",
      "latitude": "49.214599609400004",
      "longitude": "7.10950994492"
    },
    {
      "id": "350",
      "airportname": "stuttgart airport",
      "city": "stuttgart",
      "country": "germany",
      "airportcode": "str",
      "abv": "edds",
      "latitude": "48.689899444599995",
      "longitude": "9.22196006775"
    },
    {
      "id": "351",
      "airportname": "berlin-tegel international airport",
      "city": "berlin",
      "country": "germany",
      "airportcode": "txl",
      "abv": "eddt",
      "latitude": "52.5597000122",
      "longitude": "13.2876996994"
    },
    {
      "id": "352",
      "airportname": "hannover airport",
      "city": "hannover",
      "country": "germany",
      "airportcode": "haj",
      "abv": "eddv",
      "latitude": "52.461101532",
      "longitude": "9.685079574580001"
    },
    {
      "id": "353",
      "airportname": "bremen airport",
      "city": "bremen",
      "country": "germany",
      "airportcode": "bre",
      "abv": "eddw",
      "latitude": "53.0475006104",
      "longitude": "8.78666973114"
    },
    {
      "id": "354",
      "airportname": "frankfurt-egelsbach airport",
      "city": "egelsbach",
      "country": "germany",
      "airportcode": "qef",
      "abv": "edfe",
      "latitude": "49.959999084472656",
      "longitude": "8.645833015441895"
    },
    {
      "id": "355",
      "airportname": "frankfurt-hahn airport",
      "city": "hahn",
      "country": "germany",
      "airportcode": "hhn",
      "abv": "edfh",
      "latitude": "49.948699951200005",
      "longitude": "7.263889789579999"
    },
    {
      "id": "356",
      "airportname": "mannheim-city airport",
      "city": "mannheim",
      "country": "germany",
      "airportcode": "mhg",
      "abv": "edfm",
      "latitude": "49.47305679321289",
      "longitude": "8.514166831970215"
    },
    {
      "id": "357",
      "airportname": "allendorf/eder airport",
      "city": "allendorf",
      "country": "germany",
      "airportcode": "\\n",
      "abv": "edfq",
      "latitude": "51.03499984741211",
      "longitude": "8.680832862854004"
    },
    {
      "id": "358",
      "airportname": "worms airport",
      "city": "worms",
      "country": "germany",
      "airportcode": "\\n",
      "abv": "edfv",
      "latitude": "49.606945",
      "longitude": "8.368333"
    },
    {
      "id": "359",
      "airportname": "mainz-finthen airport",
      "city": "mainz",
      "country": "germany",
      "airportcode": "\\n",
      "abv": "edfz",
      "latitude": "49.967499",
      "longitude": "8.147222"
    },
    {
      "id": "360",
      "airportname": "eisenach-kindel airport",
      "city": "eisenach",
      "country": "germany",
      "airportcode": "\\n",
      "abv": "edge",
      "latitude": "50.991604",
      "longitude": "10.47973"
    },
    {
      "id": "361",
      "airportname": "siegerland airport",
      "city": "siegerland",
      "country": "germany",
      "airportcode": "\\n",
      "abv": "edgs",
      "latitude": "50.707698822021484",
      "longitude": "8.082969665527344"
    },
    {
      "id": "362",
      "airportname": "hamburg-finkenwerder airport",
      "city": "hamburg",
      "country": "germany",
      "airportcode": "xfw",
      "abv": "edhi",
      "latitude": "53.5352783203125",
      "longitude": "9.835556030273438"
    },
    {
      "id": "363",
      "airportname": "kiel-holtenau airport",
      "city": "kiel",
      "country": "germany",
      "airportcode": "kel",
      "abv": "edhk",
      "latitude": "54.37944412231445",
      "longitude": "10.145277976989746"
    },
    {
      "id": "364",
      "airportname": "lübeck blankensee airport",
      "city": "luebeck",
      "country": "germany",
      "airportcode": "lbc",
      "abv": "edhl",
      "latitude": "53.8054008484",
      "longitude": "10.7192001343"
    },
    {
      "id": "365",
      "airportname": "flugplatz dahlemer binz",
      "city": "dahlemer binz",
      "country": "germany",
      "airportcode": "\\n",
      "abv": "edkv",
      "latitude": "50.405555725",
      "longitude": "6.5288891792"
    },
    {
      "id": "366",
      "airportname": "meinerzhagen airport",
      "city": "meinerzhagen",
      "country": "germany",
      "airportcode": "\\n",
      "abv": "edkz",
      "latitude": "51.099998474121094",
      "longitude": "7.599999904632568"
    },
    {
      "id": "367",
      "airportname": "arnsberg-menden airport",
      "city": "arnsberg",
      "country": "germany",
      "airportcode": "zca",
      "abv": "edla",
      "latitude": "51.483890533447266",
      "longitude": "7.8983330726623535"
    },
    {
      "id": "368",
      "airportname": "essen mulheim airport",
      "city": "essen",
      "country": "germany",
      "airportcode": "ess",
      "abv": "edle",
      "latitude": "51.40230178833008",
      "longitude": "6.9373297691345215"
    },
    {
      "id": "369",
      "airportname": "bielefeld airport",
      "city": "bielefeld",
      "country": "germany",
      "airportcode": "\\n",
      "abv": "edli",
      "latitude": "51.9647216797",
      "longitude": "8.544444084170001"
    },
    {
      "id": "370",
      "airportname": "mönchengladbach airport",
      "city": "moenchengladbach",
      "country": "germany",
      "airportcode": "mgl",
      "abv": "edln",
      "latitude": "51.23027801513672",
      "longitude": "6.504444122314453"
    },
    {
      "id": "371",
      "airportname": "paderborn lippstadt airport",
      "city": "paderborn",
      "country": "germany",
      "airportcode": "pad",
      "abv": "edlp",
      "latitude": "51.614101409899995",
      "longitude": "8.616319656369999"
    },
    {
      "id": "372",
      "airportname": "stadtlohn-vreden airport",
      "city": "stadtlohn",
      "country": "germany",
      "airportcode": "\\n",
      "abv": "edls",
      "latitude": "51.99583435058594",
      "longitude": "6.8405561447143555"
    },
    {
      "id": "373",
      "airportname": "dortmund airport",
      "city": "dortmund",
      "country": "germany",
      "airportcode": "dtm",
      "abv": "edlw",
      "latitude": "51.51829910279999",
      "longitude": "7.61223983765"
    },
    {
      "id": "374",
      "airportname": "augsburg airport",
      "city": "augsburg",
      "country": "germany",
      "airportcode": "agb",
      "abv": "edma",
      "latitude": "48.425278",
      "longitude": "10.931667"
    },
    {
      "id": "375",
      "airportname": "biberach a.d. riß airport",
      "city": "biberach",
      "country": "germany",
      "airportcode": "\\n",
      "abv": "edmb",
      "latitude": "48.11111068725586",
      "longitude": "9.762778282165527"
    },
    {
      "id": "376",
      "airportname": "eggenfelden airport",
      "city": "eggenfelden",
      "country": "germany",
      "airportcode": "\\n",
      "abv": "edme",
      "latitude": "48.39611053466797",
      "longitude": "12.723610877990723"
    },
    {
      "id": "377",
      "airportname": "mindelheim-mattsies airport",
      "city": "mindelheim",
      "country": "germany",
      "airportcode": "\\n",
      "abv": "edmn",
      "latitude": "48.1069450378418",
      "longitude": "10.524999618530273"
    },
    {
      "id": "378",
      "airportname": "oberpfaffenhofen airport",
      "city": "oberpfaffenhofen",
      "country": "germany",
      "airportcode": "obf",
      "abv": "edmo",
      "latitude": "48.08140182495117",
      "longitude": "11.283100128173828"
    },
    {
      "id": "379",
      "airportname": "straubing airport",
      "city": "straubing",
      "country": "germany",
      "airportcode": "rbm",
      "abv": "edms",
      "latitude": "48.90083312988281",
      "longitude": "12.516667366027832"
    },
    {
      "id": "380",
      "airportname": "vilshofen airport",
      "city": "vilshofen",
      "country": "germany",
      "airportcode": "\\n",
      "abv": "edmv",
      "latitude": "48.6349983215332",
      "longitude": "13.195555686950684"
    },
    {
      "id": "381",
      "airportname": "leutkirch-unterzeil airport",
      "city": "leutkirch",
      "country": "germany",
      "airportcode": "\\n",
      "abv": "ednl",
      "latitude": "47.858890533447266",
      "longitude": "10.014166831970215"
    },
    {
      "id": "382",
      "airportname": "friedrichshafen airport",
      "city": "friedrichshafen",
      "country": "germany",
      "airportcode": "fdh",
      "abv": "edny",
      "latitude": "47.671298980699994",
      "longitude": "9.51148986816"
    },
    {
      "id": "383",
      "airportname": "schwerin parchim airport",
      "city": "parchim",
      "country": "germany",
      "airportcode": "szw",
      "abv": "edop",
      "latitude": "53.426998",
      "longitude": "11.7834"
    },
    {
      "id": "384",
      "airportname": "stendal-borstel airport",
      "city": "stendal",
      "country": "germany",
      "airportcode": "zsn",
      "abv": "edov",
      "latitude": "52.62888717651367",
      "longitude": "11.818611145019531"
    },
    {
      "id": "385",
      "airportname": "aalen-heidenheim/elchingen airport",
      "city": "aalen-heidenheim",
      "country": "germany",
      "airportcode": "\\n",
      "abv": "edpa",
      "latitude": "48.77777862548828",
      "longitude": "10.264721870422363"
    },
    {
      "id": "386",
      "airportname": "bayreuth airport",
      "city": "bayreuth",
      "country": "germany",
      "airportcode": "byu",
      "abv": "edqd",
      "latitude": "49.98500061035156",
      "longitude": "11.640000343322754"
    },
    {
      "id": "387",
      "airportname": "burg feuerstein airport",
      "city": "burg feuerstein",
      "country": "germany",
      "airportcode": "\\n",
      "abv": "edqe",
      "latitude": "49.794166564941",
      "longitude": "11.133610725403"
    },
    {
      "id": "388",
      "airportname": "hof-plauen airport",
      "city": "hof",
      "country": "germany",
      "airportcode": "hoq",
      "abv": "edqm",
      "latitude": "50.288612365722656",
      "longitude": "11.856389045715332"
    },
    {
      "id": "389",
      "airportname": "haßfurt-schweinfurt airport",
      "city": "hassfurt",
      "country": "germany",
      "airportcode": "\\n",
      "abv": "edqt",
      "latitude": "50.0180549621582",
      "longitude": "10.529443740844727"
    },
    {
      "id": "390",
      "airportname": "koblenz-winningen airport",
      "city": "koblenz",
      "country": "germany",
      "airportcode": "znv",
      "abv": "edrk",
      "latitude": "50.325557708740234",
      "longitude": "7.528611183166504"
    },
    {
      "id": "391",
      "airportname": "trier-föhren airport",
      "city": "trier",
      "country": "germany",
      "airportcode": "zqf",
      "abv": "edrt",
      "latitude": "49.863887786865234",
      "longitude": "6.787499904632568"
    },